{"type": "FeatureCollection", "features": [{"type": "Feature", "id": "0", "geometry": {"type": "Point", "coordinates": [11.605418, 44.840637]}, "properties": {"id": 394.0, "nome": "corso Piave lato nord", "city": "Ferrara"}}, {"type": "Feature", "id": "1", "geometry": {"type": "Point", "coordinates": [11.614941, 44.853751]}, "properties": {"id": 228.0, "nome": null, "city": "Ferrara"}}, {"type": "Feature", "id": "2", "geometry": {"type": "Point", "coordinates": [11.633173, 44.820162]}, "properties": {"id": 884.0, "nome": null, "city": "Ferrara"}}, {"type": "Feature", "id": "3", "geometry": {"type": "Point", "coordinates": [11.612922, 44.84813]}, "properties": {"id": 848.0, "nome": null, "city": "Ferrara"}}, {"type": "Feature", "id": "5", "geometry": {"type": "Point", "coordinates": [11.628309, 44.824821]}, "properties": {"id": 856.0, "nome": null, "city": "Ferrara"}}, {"type": "Feature", "id": "7", "geometry": {"type": "Point", "coordinates": [11.628273, 44.822917]}, "properties": {"id": 1012.0, "nome": null, "city": "Ferrara"}}, {"type": "Feature", "id": "8", "geometry": {"type": "Point", "coordinates": [11.586818, 44.840846]}, "properties": {"id": 1076.0, "nome": "via Arginone lato sud", "city": "Ferrara"}}, {"type": "Feature", "id": "9", "geometry": {"type": "Point", "coordinates": [11.599091, 44.847302]}, "properties": {"id": 1347.0, "nome": "via Marconi", "city": "Ferrara"}}, {"type": "Feature", "id": "11", "geometry": {"type": "Point", "coordinates": [11.629252, 44.824293]}, "properties": {"id": 330.0, "nome": "via San Maurelio", "city": "Ferrara"}}, {"type": "Feature", "id": "12", "geometry": {"type": "Point", "coordinates": [11.610226, 44.878653]}, "properties": {"id": 68.0, "nome": "corso del Popolo", "city": "Ferrara"}}, {"type": "Feature", "id": "13", "geometry": {"type": "Point", "coordinates": [11.595101, 44.837583]}, "properties": {"id": 414.0, "nome": "via Arginone", "city": "Ferrara"}}, {"type": "Feature", "id": "14", "geometry": {"type": "Point", "coordinates": [11.640826, 44.833333]}, "properties": {"id": 1027.0, "nome": null, "city": "Ferrara"}}, {"type": "Feature", "id": "15", "geometry": {"type": "Point", "coordinates": [11.629065, 44.823714]}, "properties": {"id": 278.0, "nome": null, "city": "Ferrara"}}, {"type": "Feature", "id": "16", "geometry": {"type": "Point", "coordinates": [11.588946, 44.805365]}, "properties": {"id": 532.0, "nome": null, "city": "Ferrara"}}, {"type": "Feature", "id": "17", "geometry": {"type": "Point", "coordinates": [11.66702, 44.813243]}, "properties": {"id": 218.0, "nome": null, "city": "Ferrara"}}, {"type": "Feature", "id": "19", "geometry": {"type": "Point", "coordinates": [11.551472, 44.858056]}, "properties": {"id": 195.0, "nome": null, "city": "Ferrara"}}, {"type": "Feature", "id": "20", "geometry": {"type": "Point", "coordinates": [11.629076, 44.781916]}, "properties": {"id": 1402.0, "nome": null, "city": "Ferrara"}}, {"type": "Feature", "id": "21", "geometry": {"type": "Point", "coordinates": [11.6176, 44.843056]}, "properties": {"id": 487.0, "nome": null, "city": "Ferrara"}}, {"type": "Feature", "id": "22", "geometry": {"type": "Point", "coordinates": [11.603238, 44.835072]}, "properties": {"id": 30.0, "nome": null, "city": "Ferrara"}}, {"type": "Feature", "id": "23", "geometry": {"type": "Point", "coordinates": [11.636021, 44.837107]}, "properties": {"id": 581.0, "nome": null, "city": "Ferrara"}}, {"type": "Feature", "id": "24", "geometry": {"type": "Point", "coordinates": [11.639112, 44.861763]}, "properties": {"id": 1152.0, "nome": null, "city": "Ferrara"}}, {"type": "Feature", "id": "25", "geometry": {"type": "Point", "coordinates": [11.613532, 44.853195]}, "properties": {"id": 227.0, "nome": null, "city": "Ferrara"}}, {"type": "Feature", "id": "26", "geometry": {"type": "Point", "coordinates": [11.614257, 44.823186]}, "properties": {"id": 208.0, "nome": null, "city": "Ferrara"}}, {"type": "Feature", "id": "28", "geometry": {"type": "Point", "coordinates": [11.621725, 44.854207]}, "properties": {"id": 232.0, "nome": null, "city": "Ferrara"}}, {"type": "Feature", "id": "30", "geometry": {"type": "Point", "coordinates": [11.611282, 44.885175]}, "properties": {"id": 122.0, "nome": "via Nuova", "city": "Ferrara"}}, {"type": "Feature", "id": "31", "geometry": {"type": "Point", "coordinates": [11.604114, 44.874649]}, "properties": {"id": 1298.0, "nome": "via F.lli Manservigi", "city": "Ferrara"}}, {"type": "Feature", "id": "32", "geometry": {"type": "Point", "coordinates": [11.613343, 44.843589]}, "properties": {"id": 536.0, "nome": null, "city": "Ferrara"}}, {"type": "Feature", "id": "33", "geometry": {"type": "Point", "coordinates": [11.645562, 44.817662]}, "properties": {"id": 215.0, "nome": null, "city": "Ferrara"}}, {"type": "Feature", "id": "34", "geometry": {"type": "Point", "coordinates": [11.612957, 44.847539]}, "properties": {"id": 441.0, "nome": "Sottomura via Porta Catena da via Bacchelli a via", "city": "Ferrara"}}, {"type": "Feature", "id": "35", "geometry": {"type": "Point", "coordinates": [11.60757, 44.847934]}, "properties": {"id": 1075.0, "nome": null, "city": "Ferrara"}}, {"type": "Feature", "id": "37", "geometry": {"type": "Point", "coordinates": [11.612131, 44.863475]}, "properties": {"id": 433.0, "nome": "via Della Canapa da via Battara alla motorizzazion", "city": "Ferrara"}}, {"type": "Feature", "id": "38", "geometry": {"type": "Point", "coordinates": [11.627661, 44.72898]}, "properties": {"id": 562.0, "nome": null, "city": "Ferrara"}}, {"type": "Feature", "id": "39", "geometry": {"type": "Point", "coordinates": [11.598374, 44.825982]}, "properties": {"id": 1050.0, "nome": null, "city": "Ferrara"}}, {"type": "Feature", "id": "40", "geometry": {"type": "Point", "coordinates": [11.610886, 44.836904]}, "properties": {"id": 495.0, "nome": null, "city": "Ferrara"}}, {"type": "Feature", "id": "41", "geometry": {"type": "Point", "coordinates": [11.628874, 44.821283]}, "properties": {"id": 1161.0, "nome": null, "city": "Ferrara"}}, {"type": "Feature", "id": "42", "geometry": {"type": "Point", "coordinates": [11.628607, 44.81886]}, "properties": {"id": 165.0, "nome": null, "city": "Ferrara"}}, {"type": "Feature", "id": "43", "geometry": {"type": "Point", "coordinates": [11.644573, 44.8479]}, "properties": {"id": 81.0, "nome": "via Guido Carli", "city": "Ferrara"}}, {"type": "Feature", "id": "44", "geometry": {"type": "Point", "coordinates": [11.625288, 44.818356]}, "properties": {"id": 161.0, "nome": null, "city": "Ferrara"}}, {"type": "Feature", "id": "45", "geometry": {"type": "Point", "coordinates": [11.603682, 44.828811]}, "properties": {"id": 721.0, "nome": null, "city": "Ferrara"}}, {"type": "Feature", "id": "46", "geometry": {"type": "Point", "coordinates": [11.611905, 44.82067]}, "properties": {"id": 1091.0, "nome": "via Boldrini fondo chiuso", "city": "Ferrara"}}, {"type": "Feature", "id": "47", "geometry": {"type": "Point", "coordinates": [11.594006, 44.825137]}, "properties": {"id": 698.0, "nome": null, "city": "Ferrara"}}, {"type": "Feature", "id": "48", "geometry": {"type": "Point", "coordinates": [11.647969, 44.894485]}, "properties": {"id": 511.0, "nome": null, "city": "Ferrara"}}, {"type": "Feature", "id": "49", "geometry": {"type": "Point", "coordinates": [11.635394, 44.819691]}, "properties": {"id": 605.0, "nome": null, "city": "Ferrara"}}, {"type": "Feature", "id": "50", "geometry": {"type": "Point", "coordinates": [11.609074, 44.879828]}, "properties": {"id": 322.0, "nome": "via Venezia lato chiesa", "city": "Ferrara"}}, {"type": "Feature", "id": "53", "geometry": {"type": "Point", "coordinates": [11.60446, 44.86937]}, "properties": {"id": 1299.0, "nome": "Centro Diamante - via del Baiocco", "city": "Ferrara"}}, {"type": "Feature", "id": "54", "geometry": {"type": "Point", "coordinates": [11.647472, 44.863109]}, "properties": {"id": 980.0, "nome": null, "city": "Ferrara"}}, {"type": "Feature", "id": "55", "geometry": {"type": "Point", "coordinates": [11.619714, 44.828899]}, "properties": {"id": 11.0, "nome": "sopramura via Baluardi", "city": "Ferrara"}}, {"type": "Feature", "id": "56", "geometry": {"type": "Point", "coordinates": [11.606598, 44.841588]}, "properties": {"id": 385.0, "nome": "via Cassoli", "city": "Ferrara"}}, {"type": "Feature", "id": "57", "geometry": {"type": "Point", "coordinates": [11.606226, 44.843756]}, "properties": {"id": 1125.0, "nome": "viale Costituzione lato nord", "city": "Ferrara"}}, {"type": "Feature", "id": "58", "geometry": {"type": "Point", "coordinates": [11.604097, 44.838549]}, "properties": {"id": 1225.0, "nome": "via Mameli", "city": "Ferrara"}}, {"type": "Feature", "id": "59", "geometry": {"type": "Point", "coordinates": [11.611843, 44.837844]}, "properties": {"id": 1238.0, "nome": "corso Isonzo", "city": "Ferrara"}}, {"type": "Feature", "id": "60", "geometry": {"type": "Point", "coordinates": [11.613461, 44.829315]}, "properties": {"id": 350.0, "nome": "via Bologna da Travaglio a Foro Boario", "city": "Ferrara"}}, {"type": "Feature", "id": "61", "geometry": {"type": "Point", "coordinates": [11.63265, 44.850686]}, "properties": {"id": 1242.0, "nome": "via Gramicia", "city": "Ferrara"}}, {"type": "Feature", "id": "62", "geometry": {"type": "Point", "coordinates": [11.620743, 44.850415]}, "properties": {"id": 815.0, "nome": "Parco Urbano lato parallello a via Bacchelli", "city": "Ferrara"}}, {"type": "Feature", "id": "63", "geometry": {"type": "Point", "coordinates": [11.649743, 44.8628]}, "properties": {"id": 975.0, "nome": null, "city": "Ferrara"}}, {"type": "Feature", "id": "64", "geometry": {"type": "Point", "coordinates": [11.632771, 44.84879]}, "properties": {"id": 508.0, "nome": "Sottomura via Gramicia", "city": "Ferrara"}}, {"type": "Feature", "id": "65", "geometry": {"type": "Point", "coordinates": [11.646771, 44.845787]}, "properties": {"id": 187.0, "nome": null, "city": "Ferrara"}}, {"type": "Feature", "id": "66", "geometry": {"type": "Point", "coordinates": [11.551333, 44.85151]}, "properties": {"id": 633.0, "nome": "via X Martiri", "city": "Ferrara"}}, {"type": "Feature", "id": "67", "geometry": {"type": "Point", "coordinates": [11.642703, 44.845335]}, "properties": {"id": 188.0, "nome": null, "city": "Ferrara"}}, {"type": "Feature", "id": "68", "geometry": {"type": "Point", "coordinates": [11.639099, 44.848435]}, "properties": {"id": 504.0, "nome": null, "city": "Ferrara"}}, {"type": "Feature", "id": "69", "geometry": {"type": "Point", "coordinates": [11.643946, 44.829778]}, "properties": {"id": 926.0, "nome": "Via Malpasso", "city": "Ferrara"}}, {"type": "Feature", "id": "70", "geometry": {"type": "Point", "coordinates": [11.596612, 44.821932]}, "properties": {"id": 705.0, "nome": "sottopasso via Beethoven", "city": "Ferrara"}}, {"type": "Feature", "id": "72", "geometry": {"type": "Point", "coordinates": [11.560521, 44.850966]}, "properties": {"id": 1364.0, "nome": "via Modena", "city": "Ferrara"}}, {"type": "Feature", "id": "73", "geometry": {"type": "Point", "coordinates": [11.605759, 44.835036]}, "properties": {"id": 1296.0, "nome": null, "city": "Ferrara"}}, {"type": "Feature", "id": "74", "geometry": {"type": "Point", "coordinates": [11.649865, 44.828241]}, "properties": {"id": 771.0, "nome": "via Mari", "city": "Ferrara"}}, {"type": "Feature", "id": "76", "geometry": {"type": "Point", "coordinates": [11.633089, 44.827601]}, "properties": {"id": 1022.0, "nome": "Sottomura", "city": "Ferrara"}}, {"type": "Feature", "id": "78", "geometry": {"type": "Point", "coordinates": [11.60511, 44.856842]}, "properties": {"id": 663.0, "nome": "via Padova", "city": "Ferrara"}}, {"type": "Feature", "id": "79", "geometry": {"type": "Point", "coordinates": [11.647452, 44.861268]}, "properties": {"id": 983.0, "nome": null, "city": "Ferrara"}}, {"type": "Feature", "id": "80", "geometry": {"type": "Point", "coordinates": [11.608607, 44.843168]}, "properties": {"id": 389.0, "nome": "viale Costituzione lato sud", "city": "Ferrara"}}, {"type": "Feature", "id": "82", "geometry": {"type": "Point", "coordinates": [11.620736, 44.884436]}, "properties": {"id": 1257.0, "nome": "via Lavezzola da via  Ricostruzione a via Calzolai", "city": "Ferrara"}}, {"type": "Feature", "id": "83", "geometry": {"type": "Point", "coordinates": [11.60378, 44.819118]}, "properties": {"id": 936.0, "nome": "via Bologna da rotatoria Wagner a via Pigna", "city": "Ferrara"}}, {"type": "Feature", "id": "84", "geometry": {"type": "Point", "coordinates": [11.596657, 44.838501]}, "properties": {"id": 944.0, "nome": "via Rita Levi Montalcini", "city": "Ferrara"}}, {"type": "Feature", "id": "85", "geometry": {"type": "Point", "coordinates": [11.612494, 44.857063]}, "properties": {"id": 1325.0, "nome": "via Don Giovanni Bosco", "city": "Ferrara"}}, {"type": "Feature", "id": "86", "geometry": {"type": "Point", "coordinates": [11.621182, 44.823667]}, "properties": {"id": 471.0, "nome": "via G. Fabbri", "city": "Ferrara"}}, {"type": "Feature", "id": "87", "geometry": {"type": "Point", "coordinates": [11.607184, 44.862118]}, "properties": {"id": 94.0, "nome": "Centro Diamante - via del Baiocco", "city": "Ferrara"}}, {"type": "Feature", "id": "88", "geometry": {"type": "Point", "coordinates": [11.647275, 44.817195]}, "properties": {"id": 343.0, "nome": "via Miles Davis", "city": "Ferrara"}}, {"type": "Feature", "id": "89", "geometry": {"type": "Point", "coordinates": [11.620342, 44.85417]}, "properties": {"id": 826.0, "nome": null, "city": "Ferrara"}}, {"type": "Feature", "id": "90", "geometry": {"type": "Point", "coordinates": [11.626332, 44.825078]}, "properties": {"id": 859.0, "nome": null, "city": "Ferrara"}}, {"type": "Feature", "id": "91", "geometry": {"type": "Point", "coordinates": [11.584045, 44.841907]}, "properties": {"id": 1133.0, "nome": "via Arginone lato nord", "city": "Ferrara"}}, {"type": "Feature", "id": "92", "geometry": {"type": "Point", "coordinates": [11.63832, 44.848399]}, "properties": {"id": 499.0, "nome": null, "city": "Ferrara"}}, {"type": "Feature", "id": "94", "geometry": {"type": "Point", "coordinates": [11.612346, 44.884219]}, "properties": {"id": 742.0, "nome": null, "city": "Ferrara"}}, {"type": "Feature", "id": "95", "geometry": {"type": "Point", "coordinates": [11.751506, 44.880713]}, "properties": {"id": 1291.0, "nome": "Pista ciclabile urbana", "city": "Ferrara"}}, {"type": "Feature", "id": "96", "geometry": {"type": "Point", "coordinates": [11.58941, 44.847564]}, "properties": {"id": 405.0, "nome": "via Modena", "city": "Ferrara"}}, {"type": "Feature", "id": "98", "geometry": {"type": "Point", "coordinates": [11.606691, 44.862975]}, "properties": {"id": 1389.0, "nome": null, "city": "Ferrara"}}, {"type": "Feature", "id": "99", "geometry": {"type": "Point", "coordinates": [11.627645, 44.824824]}, "properties": {"id": 857.0, "nome": null, "city": "Ferrara"}}, {"type": "Feature", "id": "100", "geometry": {"type": "Point", "coordinates": [11.609652, 44.843841]}, "properties": {"id": 318.0, "nome": "viale Po", "city": "Ferrara"}}, {"type": "Feature", "id": "101", "geometry": {"type": "Point", "coordinates": [11.624802, 44.851423]}, "properties": {"id": 831.0, "nome": "Parco Urbano - via Azzo Novello", "city": "Ferrara"}}, {"type": "Feature", "id": "102", "geometry": {"type": "Point", "coordinates": [11.612595, 44.885022]}, "properties": {"id": 741.0, "nome": null, "city": "Ferrara"}}, {"type": "Feature", "id": "104", "geometry": {"type": "Point", "coordinates": [11.636618, 44.884968]}, "properties": {"id": 1259.0, "nome": "via Lavezzola da via  Ricostruzione a via Calzolai", "city": "Ferrara"}}, {"type": "Feature", "id": "105", "geometry": {"type": "Point", "coordinates": [11.611992, 44.840947]}, "properties": {"id": 1131.0, "nome": "corso Isonzo giardini", "city": "Ferrara"}}, {"type": "Feature", "id": "106", "geometry": {"type": "Point", "coordinates": [11.637094, 44.829875]}, "properties": {"id": 793.0, "nome": "via Pomposa", "city": "Ferrara"}}, {"type": "Feature", "id": "107", "geometry": {"type": "Point", "coordinates": [11.634243, 44.831472]}, "properties": {"id": 453.0, "nome": "P.le Medaglie d'Oro- Via Caldirolo", "city": "Ferrara"}}, {"type": "Feature", "id": "108", "geometry": {"type": "Point", "coordinates": [11.612467, 44.821258]}, "properties": {"id": 337.0, "nome": "via Boldrini da via Pesci a ple Camicie Rosse", "city": "Ferrara"}}, {"type": "Feature", "id": "109", "geometry": {"type": "Point", "coordinates": [11.619307, 44.829838]}, "properties": {"id": 297.0, "nome": "sottomura Baluardo San Lorenzo", "city": "Ferrara"}}, {"type": "Feature", "id": "111", "geometry": {"type": "Point", "coordinates": [11.60667, 44.845176]}, "properties": {"id": 1123.0, "nome": "viale Po lato sud", "city": "Ferrara"}}, {"type": "Feature", "id": "112", "geometry": {"type": "Point", "coordinates": [11.634273, 44.84091]}, "properties": {"id": 51.0, "nome": "P.le San Giovanni da via Gramicia a via degli Ange", "city": "Ferrara"}}, {"type": "Feature", "id": "113", "geometry": {"type": "Point", "coordinates": [11.62176, 44.827764]}, "properties": {"id": 289.0, "nome": "sottomura Porta San Pietro", "city": "Ferrara"}}, {"type": "Feature", "id": "114", "geometry": {"type": "Point", "coordinates": [11.683001, 44.863837]}, "properties": {"id": 1321.0, "nome": null, "city": "Ferrara"}}, {"type": "Feature", "id": "117", "geometry": {"type": "Point", "coordinates": [11.556761, 44.851906]}, "properties": {"id": 631.0, "nome": "via Modena", "city": "Ferrara"}}, {"type": "Feature", "id": "118", "geometry": {"type": "Point", "coordinates": [11.640334, 44.832946]}, "properties": {"id": 88.0, "nome": "via della Siepe da via Cedri a via San Contardo d'", "city": "Ferrara"}}, {"type": "Feature", "id": "119", "geometry": {"type": "Point", "coordinates": [11.615177, 44.852898]}, "properties": {"id": 436.0, "nome": "via Canapa lato est", "city": "Ferrara"}}, {"type": "Feature", "id": "120", "geometry": {"type": "Point", "coordinates": [11.616061, 44.832494]}, "properties": {"id": 898.0, "nome": "via Donatori di Sangue", "city": "Ferrara"}}, {"type": "Feature", "id": "122", "geometry": {"type": "Point", "coordinates": [11.599188, 44.819727]}, "properties": {"id": 1118.0, "nome": "collegamento da via Gandini a via Verga", "city": "Ferrara"}}, {"type": "Feature", "id": "123", "geometry": {"type": "Point", "coordinates": [11.627426, 44.850807]}, "properties": {"id": 997.0, "nome": "Parco Urbano", "city": "Ferrara"}}, {"type": "Feature", "id": "124", "geometry": {"type": "Point", "coordinates": [11.605644, 44.841965]}, "properties": {"id": 384.0, "nome": "via Cassoli", "city": "Ferrara"}}, {"type": "Feature", "id": "125", "geometry": {"type": "Point", "coordinates": [11.633499, 44.831608]}, "properties": {"id": 45.0, "nome": "sopramura Rampari di San Rocco", "city": "Ferrara"}}, {"type": "Feature", "id": "126", "geometry": {"type": "Point", "coordinates": [11.616585, 44.88526]}, "properties": {"id": 516.0, "nome": null, "city": "Ferrara"}}, {"type": "Feature", "id": "127", "geometry": {"type": "Point", "coordinates": [11.602664, 44.818294]}, "properties": {"id": 692.0, "nome": "via Bologna da rotatoria Wagner a via Pigna", "city": "Ferrara"}}, {"type": "Feature", "id": "128", "geometry": {"type": "Point", "coordinates": [11.632801, 44.832055]}, "properties": {"id": 462.0, "nome": "corso Giovecca", "city": "Ferrara"}}, {"type": "Feature", "id": "129", "geometry": {"type": "Point", "coordinates": [11.638484, 44.848768]}, "properties": {"id": 502.0, "nome": null, "city": "Ferrara"}}, {"type": "Feature", "id": "130", "geometry": {"type": "Point", "coordinates": [11.609232, 44.836011]}, "properties": {"id": 1098.0, "nome": null, "city": "Ferrara"}}, {"type": "Feature", "id": "131", "geometry": {"type": "Point", "coordinates": [11.597592, 44.813957]}, "properties": {"id": 1166.0, "nome": "via Bologna lato est", "city": "Ferrara"}}, {"type": "Feature", "id": "133", "geometry": {"type": "Point", "coordinates": [11.602714, 44.863513]}, "properties": {"id": 650.0, "nome": "via Padova", "city": "Ferrara"}}, {"type": "Feature", "id": "134", "geometry": {"type": "Point", "coordinates": [11.611897, 44.838515]}, "properties": {"id": 419.0, "nome": "controviale Corso Isonzo lato ovest", "city": "Ferrara"}}, {"type": "Feature", "id": "135", "geometry": {"type": "Point", "coordinates": [11.634037, 44.840743]}, "properties": {"id": 273.0, "nome": "c.so Porta Mare", "city": "Ferrara"}}, {"type": "Feature", "id": "136", "geometry": {"type": "Point", "coordinates": [11.603365, 44.861852]}, "properties": {"id": 662.0, "nome": "via Padova", "city": "Ferrara"}}, {"type": "Feature", "id": "137", "geometry": {"type": "Point", "coordinates": [11.595158, 44.847266]}, "properties": {"id": 402.0, "nome": "via Modena", "city": "Ferrara"}}, {"type": "Feature", "id": "138", "geometry": {"type": "Point", "coordinates": [11.620802, 44.850859]}, "properties": {"id": 820.0, "nome": "Parco Urbano - via Azzo Novello", "city": "Ferrara"}}, {"type": "Feature", "id": "139", "geometry": {"type": "Point", "coordinates": [11.640315, 44.830637]}, "properties": {"id": 1144.0, "nome": "via Pacinotti", "city": "Ferrara"}}, {"type": "Feature", "id": "140", "geometry": {"type": "Point", "coordinates": [11.632147, 44.848551]}, "properties": {"id": 430.0, "nome": "sopramura Rampari di Belfiore", "city": "Ferrara"}}, {"type": "Feature", "id": "141", "geometry": {"type": "Point", "coordinates": [11.618169, 44.852587]}, "properties": {"id": 755.0, "nome": "Parco Urbano collegamento via Canapa", "city": "Ferrara"}}, {"type": "Feature", "id": "142", "geometry": {"type": "Point", "coordinates": [11.626602, 44.842362]}, "properties": {"id": 421.0, "nome": "via delle Erbe", "city": "Ferrara"}}, {"type": "Feature", "id": "143", "geometry": {"type": "Point", "coordinates": [11.627958, 44.824771]}, "properties": {"id": 282.0, "nome": "sottomura Baluardo dell'Amore", "city": "Ferrara"}}, {"type": "Feature", "id": "144", "geometry": {"type": "Point", "coordinates": [11.634602, 44.821868]}, "properties": {"id": 1327.0, "nome": "via Caposdistria", "city": "Ferrara"}}, {"type": "Feature", "id": "145", "geometry": {"type": "Point", "coordinates": [11.603869, 44.829311]}, "properties": {"id": 707.0, "nome": null, "city": "Ferrara"}}, {"type": "Feature", "id": "146", "geometry": {"type": "Point", "coordinates": [11.647472, 44.861349]}, "properties": {"id": 1285.0, "nome": null, "city": "Ferrara"}}, {"type": "Feature", "id": "147", "geometry": {"type": "Point", "coordinates": [11.60171, 44.866297]}, "properties": {"id": 649.0, "nome": "via Padova", "city": "Ferrara"}}, {"type": "Feature", "id": "148", "geometry": {"type": "Point", "coordinates": [11.632801, 44.827467]}, "properties": {"id": 277.0, "nome": "sopramura Caldirolo", "city": "Ferrara"}}, {"type": "Feature", "id": "149", "geometry": {"type": "Point", "coordinates": [11.605356, 44.834273]}, "properties": {"id": 380.0, "nome": "via Ippolito d'Este", "city": "Ferrara"}}, {"type": "Feature", "id": "150", "geometry": {"type": "Point", "coordinates": [11.750059, 44.879498]}, "properties": {"id": 1292.0, "nome": "Pista ciclabile urbana", "city": "Ferrara"}}, {"type": "Feature", "id": "151", "geometry": {"type": "Point", "coordinates": [11.636829, 44.819642]}, "properties": {"id": 607.0, "nome": null, "city": "Ferrara"}}, {"type": "Feature", "id": "152", "geometry": {"type": "Point", "coordinates": [11.648887, 44.839285]}, "properties": {"id": 760.0, "nome": "via Caretti", "city": "Ferrara"}}, {"type": "Feature", "id": "153", "geometry": {"type": "Point", "coordinates": [11.617109, 44.832349]}, "properties": {"id": 355.0, "nome": "via Bologna da Travaglio a Foro Boario", "city": "Ferrara"}}, {"type": "Feature", "id": "154", "geometry": {"type": "Point", "coordinates": [11.600883, 44.828516]}, "properties": {"id": 676.0, "nome": null, "city": "Ferrara"}}, {"type": "Feature", "id": "155", "geometry": {"type": "Point", "coordinates": [11.602236, 44.829598]}, "properties": {"id": 717.0, "nome": null, "city": "Ferrara"}}, {"type": "Feature", "id": "156", "geometry": {"type": "Point", "coordinates": [11.599705, 44.83982]}, "properties": {"id": 941.0, "nome": null, "city": "Ferrara"}}, {"type": "Feature", "id": "157", "geometry": {"type": "Point", "coordinates": [11.639728, 44.843334]}, "properties": {"id": 496.0, "nome": null, "city": "Ferrara"}}, {"type": "Feature", "id": "158", "geometry": {"type": "Point", "coordinates": [11.61081, 44.863434]}, "properties": {"id": 839.0, "nome": null, "city": "Ferrara"}}, {"type": "Feature", "id": "159", "geometry": {"type": "Point", "coordinates": [11.618676, 44.854217]}, "properties": {"id": 834.0, "nome": "Parco Urbano - via Azzo Novello", "city": "Ferrara"}}, {"type": "Feature", "id": "160", "geometry": {"type": "Point", "coordinates": [11.604604, 44.867956]}, "properties": {"id": 1300.0, "nome": "via Baiocco/Baruchello", "city": "Ferrara"}}, {"type": "Feature", "id": "161", "geometry": {"type": "Point", "coordinates": [11.607359, 44.844289]}, "properties": {"id": 396.0, "nome": "viale Cavour giardini Costituzione", "city": "Ferrara"}}, {"type": "Feature", "id": "164", "geometry": {"type": "Point", "coordinates": [11.614455, 44.849933]}, "properties": {"id": 1322.0, "nome": "via Porta Catena intersezione via Canapa", "city": "Ferrara"}}, {"type": "Feature", "id": "165", "geometry": {"type": "Point", "coordinates": [11.624681, 44.819044]}, "properties": {"id": 474.0, "nome": "via G. Fabbri", "city": "Ferrara"}}, {"type": "Feature", "id": "166", "geometry": {"type": "Point", "coordinates": [11.652179, 44.85647]}, "properties": {"id": 9024.0, "nome": null, "city": "Ferrara"}}, {"type": "Feature", "id": "167", "geometry": {"type": "Point", "coordinates": [11.620325, 44.852562]}, "properties": {"id": 754.0, "nome": "Parco Urbano collegamento via Canapa", "city": "Ferrara"}}, {"type": "Feature", "id": "168", "geometry": {"type": "Point", "coordinates": [11.683938, 44.861864]}, "properties": {"id": 1372.0, "nome": null, "city": "Ferrara"}}, {"type": "Feature", "id": "169", "geometry": {"type": "Point", "coordinates": [11.627665, 44.842087]}, "properties": {"id": 57.0, "nome": "via Folegno", "city": "Ferrara"}}, {"type": "Feature", "id": "170", "geometry": {"type": "Point", "coordinates": [11.740499, 44.807744]}, "properties": {"id": 1330.0, "nome": null, "city": "Ferrara"}}, {"type": "Feature", "id": "171", "geometry": {"type": "Point", "coordinates": [11.612532, 44.847422]}, "properties": {"id": 810.0, "nome": null, "city": "Ferrara"}}, {"type": "Feature", "id": "172", "geometry": {"type": "Point", "coordinates": [11.611947, 44.834539]}, "properties": {"id": 860.0, "nome": "sottomura Rampari San Paolo", "city": "Ferrara"}}, {"type": "Feature", "id": "173", "geometry": {"type": "Point", "coordinates": [11.648485, 44.846013]}, "properties": {"id": 186.0, "nome": null, "city": "Ferrara"}}, {"type": "Feature", "id": "174", "geometry": {"type": "Point", "coordinates": [11.607689, 44.84398]}, "properties": {"id": 400.0, "nome": "viale Po giardini", "city": "Ferrara"}}, {"type": "Feature", "id": "175", "geometry": {"type": "Point", "coordinates": [11.600687, 44.828282]}, "properties": {"id": 1304.0, "nome": null, "city": "Ferrara"}}, {"type": "Feature", "id": "176", "geometry": {"type": "Point", "coordinates": [11.611721, 44.841179]}, "properties": {"id": 1130.0, "nome": "via Vittorio Veneto", "city": "Ferrara"}}, {"type": "Feature", "id": "177", "geometry": {"type": "Point", "coordinates": [11.649624, 44.829947]}, "properties": {"id": 1314.0, "nome": "via Mari", "city": "Ferrara"}}, {"type": "Feature", "id": "178", "geometry": {"type": "Point", "coordinates": [11.606591, 44.852321]}, "properties": {"id": 665.0, "nome": null, "city": "Ferrara"}}, {"type": "Feature", "id": "179", "geometry": {"type": "Point", "coordinates": [11.630626, 44.825596]}, "properties": {"id": 1398.0, "nome": null, "city": "Ferrara"}}, {"type": "Feature", "id": "180", "geometry": {"type": "Point", "coordinates": [11.640977, 44.828216]}, "properties": {"id": 1403.0, "nome": "via Pontegradella da via Francia a via Pomposa", "city": "Ferrara"}}, {"type": "Feature", "id": "182", "geometry": {"type": "Point", "coordinates": [11.638297, 44.848678]}, "properties": {"id": 76.0, "nome": "via Pannonio: da via Gramicia a via Carli", "city": "Ferrara"}}, {"type": "Feature", "id": "183", "geometry": {"type": "Point", "coordinates": [11.639126, 44.847848]}, "properties": {"id": 1336.0, "nome": null, "city": "Ferrara"}}, {"type": "Feature", "id": "184", "geometry": {"type": "Point", "coordinates": [11.652196, 44.856233]}, "properties": {"id": 9025.0, "nome": null, "city": "Ferrara"}}, {"type": "Feature", "id": "185", "geometry": {"type": "Point", "coordinates": [11.616976, 44.849513]}, "properties": {"id": 1243.0, "nome": "viale Orlando Furioso", "city": "Ferrara"}}, {"type": "Feature", "id": "186", "geometry": {"type": "Point", "coordinates": [11.598576, 44.83115]}, "properties": {"id": 671.0, "nome": "via Saragat", "city": "Ferrara"}}, {"type": "Feature", "id": "187", "geometry": {"type": "Point", "coordinates": [11.582965, 44.849219]}, "properties": {"id": 869.0, "nome": null, "city": "Ferrara"}}, {"type": "Feature", "id": "189", "geometry": {"type": "Point", "coordinates": [11.615958, 44.832588]}, "properties": {"id": 365.0, "nome": "via Bologna lato ovest", "city": "Ferrara"}}, {"type": "Feature", "id": "190", "geometry": {"type": "Point", "coordinates": [11.593969, 44.825088]}, "properties": {"id": 699.0, "nome": null, "city": "Ferrara"}}, {"type": "Feature", "id": "191", "geometry": {"type": "Point", "coordinates": [11.596352, 44.880206]}, "properties": {"id": 995.0, "nome": null, "city": "Ferrara"}}, {"type": "Feature", "id": "192", "geometry": {"type": "Point", "coordinates": [11.605174, 44.827291]}, "properties": {"id": 727.0, "nome": null, "city": "Ferrara"}}, {"type": "Feature", "id": "193", "geometry": {"type": "Point", "coordinates": [11.643179, 44.834127]}, "properties": {"id": 90.0, "nome": "via della Siepe da via Cedri a via San Contardo d'", "city": "Ferrara"}}, {"type": "Feature", "id": "194", "geometry": {"type": "Point", "coordinates": [11.609064, 44.819606]}, "properties": {"id": 1121.0, "nome": "via Aeroporto", "city": "Ferrara"}}, {"type": "Feature", "id": "196", "geometry": {"type": "Point", "coordinates": [11.651439, 44.846144]}, "properties": {"id": 85.0, "nome": "via Copparo", "city": "Ferrara"}}, {"type": "Feature", "id": "197", "geometry": {"type": "Point", "coordinates": [11.611424, 44.857182]}, "properties": {"id": 842.0, "nome": "via Don Giovanni Bosco", "city": "Ferrara"}}, {"type": "Feature", "id": "198", "geometry": {"type": "Point", "coordinates": [11.605406, 44.827316]}, "properties": {"id": 725.0, "nome": null, "city": "Ferrara"}}, {"type": "Feature", "id": "199", "geometry": {"type": "Point", "coordinates": [11.61194, 44.839877]}, "properties": {"id": 418.0, "nome": "controviale Corso Isonzo lato ovest", "city": "Ferrara"}}, {"type": "Feature", "id": "200", "geometry": {"type": "Point", "coordinates": [11.653192, 44.856585]}, "properties": {"id": 9027.0, "nome": null, "city": "Ferrara"}}, {"type": "Feature", "id": "201", "geometry": {"type": "Point", "coordinates": [11.614809, 44.832534]}, "properties": {"id": 862.0, "nome": "sottomura Rampari San Paolo", "city": "Ferrara"}}, {"type": "Feature", "id": "202", "geometry": {"type": "Point", "coordinates": [11.609455, 44.878942]}, "properties": {"id": 256.0, "nome": "piazza B. Buozzi", "city": "Ferrara"}}, {"type": "Feature", "id": "203", "geometry": {"type": "Point", "coordinates": [11.63155, 44.849355]}, "properties": {"id": 505.0, "nome": "Sottomura via Gramicia", "city": "Ferrara"}}, {"type": "Feature", "id": "204", "geometry": {"type": "Point", "coordinates": [11.686435, 44.807902]}, "properties": {"id": 578.0, "nome": null, "city": "Ferrara"}}, {"type": "Feature", "id": "205", "geometry": {"type": "Point", "coordinates": [11.687179, 44.796802]}, "properties": {"id": 576.0, "nome": null, "city": "Ferrara"}}, {"type": "Feature", "id": "206", "geometry": {"type": "Point", "coordinates": [11.633999, 44.828987]}, "properties": {"id": 1358.0, "nome": "via Caldirolo", "city": "Ferrara"}}, {"type": "Feature", "id": "207", "geometry": {"type": "Point", "coordinates": [11.637912, 44.851756]}, "properties": {"id": 182.0, "nome": "via Calzolai tratto da via Pannonio al collegametn", "city": "Ferrara"}}, {"type": "Feature", "id": "208", "geometry": {"type": "Point", "coordinates": [11.641083, 44.829049]}, "properties": {"id": 241.0, "nome": "via Francia", "city": "Ferrara"}}, {"type": "Feature", "id": "209", "geometry": {"type": "Point", "coordinates": [11.582945, 44.845713]}, "properties": {"id": 1376.0, "nome": null, "city": "Ferrara"}}, {"type": "Feature", "id": "210", "geometry": {"type": "Point", "coordinates": [11.597605, 44.828398]}, "properties": {"id": 939.0, "nome": "collegameneto via Ippolito Nievo viale Krasnodar", "city": "Ferrara"}}, {"type": "Feature", "id": "211", "geometry": {"type": "Point", "coordinates": [11.644816, 44.832337]}, "properties": {"id": 765.0, "nome": "via San Contardo d'Este", "city": "Ferrara"}}, {"type": "Feature", "id": "212", "geometry": {"type": "Point", "coordinates": [11.648653, 44.82917]}, "properties": {"id": 786.0, "nome": "via Mari", "city": "Ferrara"}}, {"type": "Feature", "id": "213", "geometry": {"type": "Point", "coordinates": [11.547248, 44.848864]}, "properties": {"id": 851.0, "nome": null, "city": "Ferrara"}}, {"type": "Feature", "id": "214", "geometry": {"type": "Point", "coordinates": [11.622021, 44.826153]}, "properties": {"id": 286.0, "nome": "a", "city": "Ferrara"}}, {"type": "Feature", "id": "215", "geometry": {"type": "Point", "coordinates": [11.619236, 44.842839]}, "properties": {"id": 486.0, "nome": null, "city": "Ferrara"}}, {"type": "Feature", "id": "216", "geometry": {"type": "Point", "coordinates": [11.651917, 44.856701]}, "properties": {"id": 9028.0, "nome": null, "city": "Ferrara"}}, {"type": "Feature", "id": "217", "geometry": {"type": "Point", "coordinates": [11.625922, 44.849448]}, "properties": {"id": 266.0, "nome": "Sottomura via Bacchelli da via Gramicia a via Azzo", "city": "Ferrara"}}, {"type": "Feature", "id": "218", "geometry": {"type": "Point", "coordinates": [11.625908, 44.852851]}, "properties": {"id": 1310.0, "nome": "Parco Urbano - via Azzo Novello", "city": "Ferrara"}}, {"type": "Feature", "id": "219", "geometry": {"type": "Point", "coordinates": [11.642369, 44.829152]}, "properties": {"id": 1019.0, "nome": null, "city": "Ferrara"}}, {"type": "Feature", "id": "220", "geometry": {"type": "Point", "coordinates": [11.653411, 44.846067]}, "properties": {"id": 569.0, "nome": null, "city": "Ferrara"}}, {"type": "Feature", "id": "222", "geometry": {"type": "Point", "coordinates": [11.623129, 44.852793]}, "properties": {"id": 823.0, "nome": "Parco Urbano - via Azzo Novello", "city": "Ferrara"}}, {"type": "Feature", "id": "223", "geometry": {"type": "Point", "coordinates": [11.600775, 44.828536]}, "properties": {"id": 679.0, "nome": null, "city": "Ferrara"}}, {"type": "Feature", "id": "224", "geometry": {"type": "Point", "coordinates": [11.634431, 44.830969]}, "properties": {"id": 42.0, "nome": "P.le Medaglie d'Oro", "city": "Ferrara"}}, {"type": "Feature", "id": "226", "geometry": {"type": "Point", "coordinates": [11.604074, 44.845745]}, "properties": {"id": 1227.0, "nome": "viale Po lato sud", "city": "Ferrara"}}, {"type": "Feature", "id": "227", "geometry": {"type": "Point", "coordinates": [11.63303, 44.849677]}, "properties": {"id": 819.0, "nome": "Parco Urbano lato parallello a via Bacchelli", "city": "Ferrara"}}, {"type": "Feature", "id": "228", "geometry": {"type": "Point", "coordinates": [11.602642, 44.817553]}, "properties": {"id": 693.0, "nome": "via Bologna da rotatoria Wagner a via Pigna", "city": "Ferrara"}}, {"type": "Feature", "id": "229", "geometry": {"type": "Point", "coordinates": [11.565614, 44.84934]}, "properties": {"id": 1362.0, "nome": "via Modena", "city": "Ferrara"}}, {"type": "Feature", "id": "231", "geometry": {"type": "Point", "coordinates": [11.646454, 44.81771]}, "properties": {"id": 348.0, "nome": "via Tambroni", "city": "Ferrara"}}, {"type": "Feature", "id": "232", "geometry": {"type": "Point", "coordinates": [11.616244, 44.825102]}, "properties": {"id": 19.0, "nome": "collegamento da via Pastro a via Poletti", "city": "Ferrara"}}, {"type": "Feature", "id": "235", "geometry": {"type": "Point", "coordinates": [11.650478, 44.844612]}, "properties": {"id": 444.0, "nome": "Via Caretti: dalla rotatoria di via Copparo a via", "city": "Ferrara"}}, {"type": "Feature", "id": "237", "geometry": {"type": "Point", "coordinates": [11.633164, 44.844837]}, "properties": {"id": 429.0, "nome": "sopramura Rampari di Belfiore", "city": "Ferrara"}}, {"type": "Feature", "id": "238", "geometry": {"type": "Point", "coordinates": [11.630493, 44.82464]}, "properties": {"id": 37.0, "nome": "sottomura Caldirolo", "city": "Ferrara"}}, {"type": "Feature", "id": "240", "geometry": {"type": "Point", "coordinates": [11.634849, 44.840849]}, "properties": {"id": 52.0, "nome": "P.le San Giovanni da via Gramicia a via degli Ange", "city": "Ferrara"}}, {"type": "Feature", "id": "241", "geometry": {"type": "Point", "coordinates": [11.61202, 44.847614]}, "properties": {"id": 809.0, "nome": null, "city": "Ferrara"}}, {"type": "Feature", "id": "242", "geometry": {"type": "Point", "coordinates": [11.62927, 44.822961]}, "properties": {"id": 909.0, "nome": "via Comacchio", "city": "Ferrara"}}, {"type": "Feature", "id": "243", "geometry": {"type": "Point", "coordinates": [11.620473, 44.852997]}, "properties": {"id": 828.0, "nome": null, "city": "Ferrara"}}, {"type": "Feature", "id": "244", "geometry": {"type": "Point", "coordinates": [11.620634, 44.854283]}, "properties": {"id": 825.0, "nome": null, "city": "Ferrara"}}, {"type": "Feature", "id": "245", "geometry": {"type": "Point", "coordinates": [11.602188, 44.829552]}, "properties": {"id": 712.0, "nome": null, "city": "Ferrara"}}, {"type": "Feature", "id": "246", "geometry": {"type": "Point", "coordinates": [11.621867, 44.827709]}, "properties": {"id": 296.0, "nome": "sottomura Quartieri", "city": "Ferrara"}}, {"type": "Feature", "id": "247", "geometry": {"type": "Point", "coordinates": [11.548632, 44.848433]}, "properties": {"id": 849.0, "nome": null, "city": "Ferrara"}}, {"type": "Feature", "id": "248", "geometry": {"type": "Point", "coordinates": [11.621877, 44.827848]}, "properties": {"id": 295.0, "nome": "sottomura Quartieri", "city": "Ferrara"}}, {"type": "Feature", "id": "249", "geometry": {"type": "Point", "coordinates": [11.59582, 44.823802]}, "properties": {"id": 694.0, "nome": null, "city": "Ferrara"}}, {"type": "Feature", "id": "250", "geometry": {"type": "Point", "coordinates": [11.638282, 44.848576]}, "properties": {"id": 1173.0, "nome": null, "city": "Ferrara"}}, {"type": "Feature", "id": "251", "geometry": {"type": "Point", "coordinates": [11.611067, 44.88519]}, "properties": {"id": 744.0, "nome": null, "city": "Ferrara"}}, {"type": "Feature", "id": "253", "geometry": {"type": "Point", "coordinates": [11.642153, 44.827983]}, "properties": {"id": 235.0, "nome": null, "city": "Ferrara"}}, {"type": "Feature", "id": "254", "geometry": {"type": "Point", "coordinates": [11.604512, 44.837631]}, "properties": {"id": 25.0, "nome": "sopramura Baluardo San Paolo alla Fortezza", "city": "Ferrara"}}, {"type": "Feature", "id": "255", "geometry": {"type": "Point", "coordinates": [11.619173, 44.849618]}, "properties": {"id": 432.0, "nome": "sorpamura Orlando Furioso", "city": "Ferrara"}}, {"type": "Feature", "id": "256", "geometry": {"type": "Point", "coordinates": [11.640744, 44.828046]}, "properties": {"id": 791.0, "nome": "via Pomposa", "city": "Ferrara"}}, {"type": "Feature", "id": "257", "geometry": {"type": "Point", "coordinates": [11.613156, 44.833302]}, "properties": {"id": 861.0, "nome": "sottomura Rampari San Paolo", "city": "Ferrara"}}, {"type": "Feature", "id": "258", "geometry": {"type": "Point", "coordinates": [11.600793, 44.82851]}, "properties": {"id": 678.0, "nome": null, "city": "Ferrara"}}, {"type": "Feature", "id": "259", "geometry": {"type": "Point", "coordinates": [11.603677, 44.841512]}, "properties": {"id": 1110.0, "nome": "corso Piave lato nord", "city": "Ferrara"}}, {"type": "Feature", "id": "260", "geometry": {"type": "Point", "coordinates": [11.642654, 44.82884]}, "properties": {"id": 1399.0, "nome": null, "city": "Ferrara"}}, {"type": "Feature", "id": "262", "geometry": {"type": "Point", "coordinates": [11.602251, 44.820511]}, "properties": {"id": 1112.0, "nome": "via Verga", "city": "Ferrara"}}, {"type": "Feature", "id": "263", "geometry": {"type": "Point", "coordinates": [11.628969, 44.843633]}, "properties": {"id": 1009.0, "nome": "via delle Erbe", "city": "Ferrara"}}, {"type": "Feature", "id": "265", "geometry": {"type": "Point", "coordinates": [11.649975, 44.830938]}, "properties": {"id": 1103.0, "nome": "via Giovanni Battista Lanza", "city": "Ferrara"}}, {"type": "Feature", "id": "266", "geometry": {"type": "Point", "coordinates": [11.631966, 44.82965]}, "properties": {"id": 1247.0, "nome": "V.le Alfonso d'Este", "city": "Ferrara"}}, {"type": "Feature", "id": "267", "geometry": {"type": "Point", "coordinates": [11.606248, 44.852073]}, "properties": {"id": 63.0, "nome": "parallela a via Padova da via Agni a via Picelli", "city": "Ferrara"}}, {"type": "Feature", "id": "268", "geometry": {"type": "Point", "coordinates": [11.604279, 44.849525]}, "properties": {"id": 480.0, "nome": "parallela a via Padova da via Agni a via Picelli", "city": "Ferrara"}}, {"type": "Feature", "id": "269", "geometry": {"type": "Point", "coordinates": [11.649565, 44.846207]}, "properties": {"id": 1392.0, "nome": null, "city": "Ferrara"}}, {"type": "Feature", "id": "272", "geometry": {"type": "Point", "coordinates": [11.589442, 44.779547]}, "properties": {"id": 1249.0, "nome": "via Chiesa", "city": "Ferrara"}}, {"type": "Feature", "id": "273", "geometry": {"type": "Point", "coordinates": [11.605862, 44.822042]}, "properties": {"id": 370.0, "nome": "via Bologna lato ovest", "city": "Ferrara"}}, {"type": "Feature", "id": "274", "geometry": {"type": "Point", "coordinates": [11.64553, 44.832908]}, "properties": {"id": 762.0, "nome": "via Caretti", "city": "Ferrara"}}, {"type": "Feature", "id": "276", "geometry": {"type": "Point", "coordinates": [11.601616, 44.83897]}, "properties": {"id": 1180.0, "nome": "via Darsena San Fiacomo", "city": "Ferrara"}}, {"type": "Feature", "id": "277", "geometry": {"type": "Point", "coordinates": [11.602676, 44.818971]}, "properties": {"id": 377.0, "nome": "via Bologna lato ovest", "city": "Ferrara"}}, {"type": "Feature", "id": "278", "geometry": {"type": "Point", "coordinates": [11.602571, 44.837462]}, "properties": {"id": 246.0, "nome": "via Darsena", "city": "Ferrara"}}, {"type": "Feature", "id": "279", "geometry": {"type": "Point", "coordinates": [11.614066, 44.849024]}, "properties": {"id": 1341.0, "nome": "Sottomura via Porta Catena da via Bacchelli a via", "city": "Ferrara"}}, {"type": "Feature", "id": "280", "geometry": {"type": "Point", "coordinates": [11.602724, 44.831897]}, "properties": {"id": 1201.0, "nome": "via Leati", "city": "Ferrara"}}, {"type": "Feature", "id": "281", "geometry": {"type": "Point", "coordinates": [11.604049, 44.836755]}, "properties": {"id": 245.0, "nome": "via Darsena", "city": "Ferrara"}}, {"type": "Feature", "id": "282", "geometry": {"type": "Point", "coordinates": [11.603523, 44.863345]}, "properties": {"id": 651.0, "nome": null, "city": "Ferrara"}}, {"type": "Feature", "id": "284", "geometry": {"type": "Point", "coordinates": [11.634966, 44.827039]}, "properties": {"id": 1134.0, "nome": "via Caldirolo da Chendi a Caldirolo", "city": "Ferrara"}}, {"type": "Feature", "id": "285", "geometry": {"type": "Point", "coordinates": [11.632328, 44.846936]}, "properties": {"id": 426.0, "nome": "via degli Angeli", "city": "Ferrara"}}, {"type": "Feature", "id": "286", "geometry": {"type": "Point", "coordinates": [11.648069, 44.858816]}, "properties": {"id": 1273.0, "nome": null, "city": "Ferrara"}}, {"type": "Feature", "id": "288", "geometry": {"type": "Point", "coordinates": [11.646023, 44.820493]}, "properties": {"id": 1021.0, "nome": null, "city": "Ferrara"}}, {"type": "Feature", "id": "289", "geometry": {"type": "Point", "coordinates": [11.597743, 44.847011]}, "properties": {"id": 1229.0, "nome": "via Modena", "city": "Ferrara"}}, {"type": "Feature", "id": "290", "geometry": {"type": "Point", "coordinates": [11.648094, 44.828005]}, "properties": {"id": 922.0, "nome": "via Mari", "city": "Ferrara"}}, {"type": "Feature", "id": "291", "geometry": {"type": "Point", "coordinates": [11.646454, 44.81771]}, "properties": {"id": 347.0, "nome": "via Tambroni", "city": "Ferrara"}}, {"type": "Feature", "id": "292", "geometry": {"type": "Point", "coordinates": [11.604698, 44.840964]}, "properties": {"id": 393.0, "nome": "corso Piave lato nord", "city": "Ferrara"}}, {"type": "Feature", "id": "293", "geometry": {"type": "Point", "coordinates": [11.622679, 44.821618]}, "properties": {"id": 472.0, "nome": "via G. Fabbri", "city": "Ferrara"}}, {"type": "Feature", "id": "294", "geometry": {"type": "Point", "coordinates": [11.609862, 44.881773]}, "properties": {"id": 1388.0, "nome": null, "city": "Ferrara"}}, {"type": "Feature", "id": "295", "geometry": {"type": "Point", "coordinates": [11.632483, 44.832196]}, "properties": {"id": 459.0, "nome": "corso Giovecca", "city": "Ferrara"}}, {"type": "Feature", "id": "296", "geometry": {"type": "Point", "coordinates": [11.608003, 44.824315]}, "properties": {"id": 368.0, "nome": "via Bologna lato ovest", "city": "Ferrara"}}, {"type": "Feature", "id": "297", "geometry": {"type": "Point", "coordinates": [11.646352, 44.830522]}, "properties": {"id": 917.0, "nome": "via Pontegradella", "city": "Ferrara"}}, {"type": "Feature", "id": "299", "geometry": {"type": "Point", "coordinates": [11.614024, 44.848227]}, "properties": {"id": 731.0, "nome": "viale Belvedere lato ovest", "city": "Ferrara"}}, {"type": "Feature", "id": "300", "geometry": {"type": "Point", "coordinates": [11.633242, 44.849384]}, "properties": {"id": 78.0, "nome": "via Pannonio: da via Gramicia a via Carli", "city": "Ferrara"}}, {"type": "Feature", "id": "303", "geometry": {"type": "Point", "coordinates": [11.605974, 44.834848]}, "properties": {"id": 1220.0, "nome": "via Ippolito d'Este", "city": "Ferrara"}}, {"type": "Feature", "id": "304", "geometry": {"type": "Point", "coordinates": [11.639947, 44.828523]}, "properties": {"id": 792.0, "nome": "via Pomposa", "city": "Ferrara"}}, {"type": "Feature", "id": "308", "geometry": {"type": "Point", "coordinates": [11.605447, 44.818006]}, "properties": {"id": 691.0, "nome": "via Bologna da rotatoria Wagner a via Pigna", "city": "Ferrara"}}, {"type": "Feature", "id": "309", "geometry": {"type": "Point", "coordinates": [11.620219, 44.843919]}, "properties": {"id": 1342.0, "nome": null, "city": "Ferrara"}}, {"type": "Feature", "id": "310", "geometry": {"type": "Point", "coordinates": [11.615019, 44.842276]}, "properties": {"id": 1351.0, "nome": "via Don E. Tazzoli", "city": "Ferrara"}}, {"type": "Feature", "id": "311", "geometry": {"type": "Point", "coordinates": [11.552675, 44.84904]}, "properties": {"id": 1132.0, "nome": "via Piopponi", "city": "Ferrara"}}, {"type": "Feature", "id": "312", "geometry": {"type": "Point", "coordinates": [11.631734, 44.848957]}, "properties": {"id": 268.0, "nome": "Sottomura via Gramicia", "city": "Ferrara"}}, {"type": "Feature", "id": "313", "geometry": {"type": "Point", "coordinates": [11.611826, 44.828069]}, "properties": {"id": 1216.0, "nome": "via Bologna lato ovest", "city": "Ferrara"}}, {"type": "Feature", "id": "314", "geometry": {"type": "Point", "coordinates": [11.605556, 44.873596]}, "properties": {"id": 327.0, "nome": "via F.lli Manservigi", "city": "Ferrara"}}, {"type": "Feature", "id": "315", "geometry": {"type": "Point", "coordinates": [11.632808, 44.831754]}, "properties": {"id": 1240.0, "nome": "V.le Alfonso d'Este", "city": "Ferrara"}}, {"type": "Feature", "id": "316", "geometry": {"type": "Point", "coordinates": [11.641076, 44.82149]}, "properties": {"id": 1208.0, "nome": "via Comacchio lato nord", "city": "Ferrara"}}, {"type": "Feature", "id": "317", "geometry": {"type": "Point", "coordinates": [11.617319, 44.851124]}, "properties": {"id": 750.0, "nome": "Parco Urbano - via Azzo Novello", "city": "Ferrara"}}, {"type": "Feature", "id": "318", "geometry": {"type": "Point", "coordinates": [11.600488, 44.838019]}, "properties": {"id": 1127.0, "nome": "via San Giacomo", "city": "Ferrara"}}, {"type": "Feature", "id": "319", "geometry": {"type": "Point", "coordinates": [11.628761, 44.823437]}, "properties": {"id": 559.0, "nome": null, "city": "Ferrara"}}, {"type": "Feature", "id": "320", "geometry": {"type": "Point", "coordinates": [11.600958, 44.828998]}, "properties": {"id": 675.0, "nome": null, "city": "Ferrara"}}, {"type": "Feature", "id": "322", "geometry": {"type": "Point", "coordinates": [11.624271, 44.853956]}, "properties": {"id": 950.0, "nome": "Parco Urbano collegamento via Canapa", "city": "Ferrara"}}, {"type": "Feature", "id": "323", "geometry": {"type": "Point", "coordinates": [11.6333, 44.831459]}, "properties": {"id": 274.0, "nome": "sopramura Caldirolo", "city": "Ferrara"}}, {"type": "Feature", "id": "324", "geometry": {"type": "Point", "coordinates": [11.635505, 44.832407]}, "properties": {"id": 1174.0, "nome": null, "city": "Ferrara"}}, {"type": "Feature", "id": "325", "geometry": {"type": "Point", "coordinates": [11.601608, 44.848976]}, "properties": {"id": 629.0, "nome": "via Padova", "city": "Ferrara"}}, {"type": "Feature", "id": "328", "geometry": {"type": "Point", "coordinates": [11.620843, 44.851419]}, "properties": {"id": 821.0, "nome": "Parco Urbano - via Azzo Novello", "city": "Ferrara"}}, {"type": "Feature", "id": "329", "geometry": {"type": "Point", "coordinates": [11.602915, 44.819409]}, "properties": {"id": 373.0, "nome": "via Bologna lato ovest", "city": "Ferrara"}}, {"type": "Feature", "id": "330", "geometry": {"type": "Point", "coordinates": [11.632361, 44.848871]}, "properties": {"id": 269.0, "nome": "Sottomura via Gramicia", "city": "Ferrara"}}, {"type": "Feature", "id": "331", "geometry": {"type": "Point", "coordinates": [11.63133, 44.827169]}, "properties": {"id": 1188.0, "nome": "viale Alfonso d'Este", "city": "Ferrara"}}, {"type": "Feature", "id": "332", "geometry": {"type": "Point", "coordinates": [11.632063, 44.824644]}, "properties": {"id": 280.0, "nome": null, "city": "Ferrara"}}, {"type": "Feature", "id": "334", "geometry": {"type": "Point", "coordinates": [11.64798, 44.830047]}, "properties": {"id": 918.0, "nome": "via Mari", "city": "Ferrara"}}, {"type": "Feature", "id": "335", "geometry": {"type": "Point", "coordinates": [11.640893, 44.833441]}, "properties": {"id": 1026.0, "nome": null, "city": "Ferrara"}}, {"type": "Feature", "id": "336", "geometry": {"type": "Point", "coordinates": [11.608101, 44.845145]}, "properties": {"id": 1124.0, "nome": "viale Po lato nord", "city": "Ferrara"}}, {"type": "Feature", "id": "337", "geometry": {"type": "Point", "coordinates": [11.609193, 44.880031]}, "properties": {"id": 253.0, "nome": "via Venezia lato chiesa", "city": "Ferrara"}}, {"type": "Feature", "id": "338", "geometry": {"type": "Point", "coordinates": [11.593281, 44.824249]}, "properties": {"id": 703.0, "nome": null, "city": "Ferrara"}}, {"type": "Feature", "id": "339", "geometry": {"type": "Point", "coordinates": [11.564394, 44.849709]}, "properties": {"id": 1365.0, "nome": "via Modena", "city": "Ferrara"}}, {"type": "Feature", "id": "340", "geometry": {"type": "Point", "coordinates": [11.642398, 44.827923]}, "properties": {"id": 934.0, "nome": "collegamento parallelo a via Pontegradella da via", "city": "Ferrara"}}, {"type": "Feature", "id": "342", "geometry": {"type": "Point", "coordinates": [11.640978, 44.83416]}, "properties": {"id": 89.0, "nome": "via della Siepe da via Cedri a via San Contardo d'", "city": "Ferrara"}}, {"type": "Feature", "id": "343", "geometry": {"type": "Point", "coordinates": [11.607354, 44.844736]}, "properties": {"id": 1394.0, "nome": "viale Cavour giardini Costituzione", "city": "Ferrara"}}, {"type": "Feature", "id": "344", "geometry": {"type": "Point", "coordinates": [11.593281, 44.824249]}, "properties": {"id": 702.0, "nome": null, "city": "Ferrara"}}, {"type": "Feature", "id": "345", "geometry": {"type": "Point", "coordinates": [11.581093, 44.842717]}, "properties": {"id": 1379.0, "nome": null, "city": "Ferrara"}}, {"type": "Feature", "id": "346", "geometry": {"type": "Point", "coordinates": [11.634541, 44.826928]}, "properties": {"id": 328.0, "nome": "via Caldirolo", "city": "Ferrara"}}, {"type": "Feature", "id": "347", "geometry": {"type": "Point", "coordinates": [11.611842, 44.884909]}, "properties": {"id": 738.0, "nome": null, "city": "Ferrara"}}, {"type": "Feature", "id": "348", "geometry": {"type": "Point", "coordinates": [11.614257, 44.823186]}, "properties": {"id": 6.0, "nome": "via Boldrini da via Poletti a via Grillenzoni", "city": "Ferrara"}}, {"type": "Feature", "id": "350", "geometry": {"type": "Point", "coordinates": [11.613735, 44.82248]}, "properties": {"id": 335.0, "nome": "via Boldrini da via Poletti a via Grillenzoni", "city": "Ferrara"}}, {"type": "Feature", "id": "351", "geometry": {"type": "Point", "coordinates": [11.649132, 44.827815]}, "properties": {"id": 1315.0, "nome": "via Mari", "city": "Ferrara"}}, {"type": "Feature", "id": "352", "geometry": {"type": "Point", "coordinates": [11.554337, 44.852537]}, "properties": {"id": 630.0, "nome": "via Modena", "city": "Ferrara"}}, {"type": "Feature", "id": "353", "geometry": {"type": "Point", "coordinates": [11.54263, 44.850664]}, "properties": {"id": 622.0, "nome": "Pista ciclabile urbana", "city": "Ferrara"}}, {"type": "Feature", "id": "354", "geometry": {"type": "Point", "coordinates": [11.621832, 44.827751]}, "properties": {"id": 13.0, "nome": "sopramura via Baluardi", "city": "Ferrara"}}, {"type": "Feature", "id": "355", "geometry": {"type": "Point", "coordinates": [11.619916, 44.828324]}, "properties": {"id": 291.0, "nome": "sottomura Porta San Pietro", "city": "Ferrara"}}, {"type": "Feature", "id": "356", "geometry": {"type": "Point", "coordinates": [11.642186, 44.842467]}, "properties": {"id": 1136.0, "nome": "Via Bellonci tratto da via Elsa Morante a via Sera", "city": "Ferrara"}}, {"type": "Feature", "id": "357", "geometry": {"type": "Point", "coordinates": [11.620921, 44.82469]}, "properties": {"id": 1116.0, "nome": "via del Melograno", "city": "Ferrara"}}, {"type": "Feature", "id": "358", "geometry": {"type": "Point", "coordinates": [11.635956, 44.849154]}, "properties": {"id": 77.0, "nome": "via Pannonio: da via Gramicia a via Carli", "city": "Ferrara"}}, {"type": "Feature", "id": "359", "geometry": {"type": "Point", "coordinates": [11.604843, 44.872472]}, "properties": {"id": 644.0, "nome": "Centro Diamante - via del Baiocco", "city": "Ferrara"}}, {"type": "Feature", "id": "360", "geometry": {"type": "Point", "coordinates": [11.709543, 44.805697]}, "properties": {"id": 251.0, "nome": "via Don Giulio Zerbini", "city": "Ferrara"}}, {"type": "Feature", "id": "361", "geometry": {"type": "Point", "coordinates": [11.639334, 44.842113]}, "properties": {"id": 1244.0, "nome": "via Giovanni XXIII", "city": "Ferrara"}}, {"type": "Feature", "id": "362", "geometry": {"type": "Point", "coordinates": [11.605944, 44.861093]}, "properties": {"id": 483.0, "nome": null, "city": "Ferrara"}}, {"type": "Feature", "id": "363", "geometry": {"type": "Point", "coordinates": [11.593422, 44.825371]}, "properties": {"id": 701.0, "nome": null, "city": "Ferrara"}}, {"type": "Feature", "id": "364", "geometry": {"type": "Point", "coordinates": [11.629051, 44.82435]}, "properties": {"id": 1078.0, "nome": "via Bartoli", "city": "Ferrara"}}, {"type": "Feature", "id": "365", "geometry": {"type": "Point", "coordinates": [11.632897, 44.832013]}, "properties": {"id": 460.0, "nome": "corso Giovecca", "city": "Ferrara"}}, {"type": "Feature", "id": "366", "geometry": {"type": "Point", "coordinates": [11.649026, 44.83002]}, "properties": {"id": 774.0, "nome": "via Mari", "city": "Ferrara"}}, {"type": "Feature", "id": "367", "geometry": {"type": "Point", "coordinates": [11.614812, 44.846955]}, "properties": {"id": 1096.0, "nome": "via Bagaro", "city": "Ferrara"}}, {"type": "Feature", "id": "368", "geometry": {"type": "Point", "coordinates": [11.648841, 44.829185]}, "properties": {"id": 785.0, "nome": "via Mari", "city": "Ferrara"}}, {"type": "Feature", "id": "369", "geometry": {"type": "Point", "coordinates": [11.600853, 44.828411]}, "properties": {"id": 687.0, "nome": null, "city": "Ferrara"}}, {"type": "Feature", "id": "370", "geometry": {"type": "Point", "coordinates": [11.633199, 44.819976]}, "properties": {"id": 883.0, "nome": null, "city": "Ferrara"}}, {"type": "Feature", "id": "371", "geometry": {"type": "Point", "coordinates": [11.607317, 44.835005]}, "properties": {"id": 1169.0, "nome": "via Darsena", "city": "Ferrara"}}, {"type": "Feature", "id": "372", "geometry": {"type": "Point", "coordinates": [11.646995, 44.834197]}, "properties": {"id": 761.0, "nome": "via Caretti", "city": "Ferrara"}}, {"type": "Feature", "id": "373", "geometry": {"type": "Point", "coordinates": [11.617375, 44.831328]}, "properties": {"id": 298.0, "nome": "sottomura Baluardo San Lorenzo", "city": "Ferrara"}}, {"type": "Feature", "id": "374", "geometry": {"type": "Point", "coordinates": [11.604683, 44.820508]}, "properties": {"id": 356.0, "nome": "via Bologna da Foro Boario a rotatoria Wagner", "city": "Ferrara"}}, {"type": "Feature", "id": "375", "geometry": {"type": "Point", "coordinates": [11.547271, 44.848628]}, "properties": {"id": 850.0, "nome": null, "city": "Ferrara"}}, {"type": "Feature", "id": "378", "geometry": {"type": "Point", "coordinates": [11.611906, 44.852237]}, "properties": {"id": 846.0, "nome": null, "city": "Ferrara"}}, {"type": "Feature", "id": "379", "geometry": {"type": "Point", "coordinates": [11.595968, 44.837593]}, "properties": {"id": 1318.0, "nome": null, "city": "Ferrara"}}, {"type": "Feature", "id": "380", "geometry": {"type": "Point", "coordinates": [11.644656, 44.833626]}, "properties": {"id": 1176.0, "nome": "Via dei Cedri da via Dei Cedri a via San Contardo", "city": "Ferrara"}}, {"type": "Feature", "id": "381", "geometry": {"type": "Point", "coordinates": [11.628595, 44.824726]}, "properties": {"id": 283.0, "nome": "sottomura Baluardo dell'Amore", "city": "Ferrara"}}, {"type": "Feature", "id": "383", "geometry": {"type": "Point", "coordinates": [11.606237, 44.852968]}, "properties": {"id": 667.0, "nome": "via Padova", "city": "Ferrara"}}, {"type": "Feature", "id": "385", "geometry": {"type": "Point", "coordinates": [11.624584, 44.825249]}, "properties": {"id": 285.0, "nome": "a", "city": "Ferrara"}}, {"type": "Feature", "id": "386", "geometry": {"type": "Point", "coordinates": [11.634811, 44.821701]}, "properties": {"id": 855.0, "nome": "via Capodistria", "city": "Ferrara"}}, {"type": "Feature", "id": "387", "geometry": {"type": "Point", "coordinates": [11.627462, 44.842539]}, "properties": {"id": 420.0, "nome": "via delle Erbe", "city": "Ferrara"}}, {"type": "Feature", "id": "388", "geometry": {"type": "Point", "coordinates": [11.596584, 44.811766]}, "properties": {"id": 312.0, "nome": "via Bologna collegamento via Bagni", "city": "Ferrara"}}, {"type": "Feature", "id": "389", "geometry": {"type": "Point", "coordinates": [11.616685, 44.832131]}, "properties": {"id": 899.0, "nome": "via Donatori di Sangue", "city": "Ferrara"}}, {"type": "Feature", "id": "390", "geometry": {"type": "Point", "coordinates": [11.60382, 44.819843]}, "properties": {"id": 374.0, "nome": "via Bologna lato ovest", "city": "Ferrara"}}, {"type": "Feature", "id": "392", "geometry": {"type": "Point", "coordinates": [11.616244, 44.82426]}, "properties": {"id": 1344.0, "nome": null, "city": "Ferrara"}}, {"type": "Feature", "id": "393", "geometry": {"type": "Point", "coordinates": [11.642683, 44.839968]}, "properties": {"id": 1080.0, "nome": "via Matilde Serao", "city": "Ferrara"}}, {"type": "Feature", "id": "394", "geometry": {"type": "Point", "coordinates": [11.630208, 44.824036]}, "properties": {"id": 1053.0, "nome": null, "city": "Ferrara"}}, {"type": "Feature", "id": "395", "geometry": {"type": "Point", "coordinates": [11.622693, 44.854359]}, "properties": {"id": 951.0, "nome": "Parco Urbano collegamento via Canapa", "city": "Ferrara"}}, {"type": "Feature", "id": "396", "geometry": {"type": "Point", "coordinates": [11.615272, 44.831301]}, "properties": {"id": 359.0, "nome": "via Bologna lato ovest", "city": "Ferrara"}}, {"type": "Feature", "id": "397", "geometry": {"type": "Point", "coordinates": [11.595984, 44.84721]}, "properties": {"id": 403.0, "nome": "via Modena", "city": "Ferrara"}}, {"type": "Feature", "id": "398", "geometry": {"type": "Point", "coordinates": [11.634867, 44.836438]}, "properties": {"id": 47.0, "nome": "sopramura Rampari di San Rocco", "city": "Ferrara"}}, {"type": "Feature", "id": "399", "geometry": {"type": "Point", "coordinates": [11.547297, 44.848362]}, "properties": {"id": 987.0, "nome": null, "city": "Ferrara"}}, {"type": "Feature", "id": "400", "geometry": {"type": "Point", "coordinates": [11.61499, 44.849015]}, "properties": {"id": 804.0, "nome": "Sottomura via Bacchelli da via Azzo Novello a via", "city": "Ferrara"}}, {"type": "Feature", "id": "401", "geometry": {"type": "Point", "coordinates": [11.598202, 44.825748]}, "properties": {"id": 261.0, "nome": "collegamento tra via Krasnodar e via Carducci", "city": "Ferrara"}}, {"type": "Feature", "id": "402", "geometry": {"type": "Point", "coordinates": [11.604819, 44.83371]}, "properties": {"id": 1212.0, "nome": "via Ippolito d'Este", "city": "Ferrara"}}, {"type": "Feature", "id": "405", "geometry": {"type": "Point", "coordinates": [11.615626, 44.832172]}, "properties": {"id": 361.0, "nome": "via Bologna lato ovest", "city": "Ferrara"}}, {"type": "Feature", "id": "406", "geometry": {"type": "Point", "coordinates": [11.609688, 44.82611]}, "properties": {"id": 369.0, "nome": "via Bologna lato ovest", "city": "Ferrara"}}, {"type": "Feature", "id": "408", "geometry": {"type": "Point", "coordinates": [11.634564, 44.832855]}, "properties": {"id": 264.0, "nome": "Sottomura est e degli Angeli", "city": "Ferrara"}}, {"type": "Feature", "id": "409", "geometry": {"type": "Point", "coordinates": [11.594187, 44.822935]}, "properties": {"id": 704.0, "nome": "sottopasso via Beethoven", "city": "Ferrara"}}, {"type": "Feature", "id": "411", "geometry": {"type": "Point", "coordinates": [11.615616, 44.851438]}, "properties": {"id": 435.0, "nome": "via Canapa lato est", "city": "Ferrara"}}, {"type": "Feature", "id": "412", "geometry": {"type": "Point", "coordinates": [11.615115, 44.852389]}, "properties": {"id": 1073.0, "nome": "via Canapa lato ovest", "city": "Ferrara"}}, {"type": "Feature", "id": "413", "geometry": {"type": "Point", "coordinates": [11.604387, 44.839707]}, "properties": {"id": 102.0, "nome": "sopramura Baluardo S. Maria", "city": "Ferrara"}}, {"type": "Feature", "id": "414", "geometry": {"type": "Point", "coordinates": [11.616793, 44.832068]}, "properties": {"id": 353.0, "nome": "via Bologna da Travaglio a Foro Boario", "city": "Ferrara"}}, {"type": "Feature", "id": "415", "geometry": {"type": "Point", "coordinates": [11.616663, 44.833226]}, "properties": {"id": 1213.0, "nome": "corso Porta Reno", "city": "Ferrara"}}, {"type": "Feature", "id": "416", "geometry": {"type": "Point", "coordinates": [11.638719, 44.848222]}, "properties": {"id": 503.0, "nome": null, "city": "Ferrara"}}, {"type": "Feature", "id": "418", "geometry": {"type": "Point", "coordinates": [11.614599, 44.830499]}, "properties": {"id": 364.0, "nome": "via Bologna lato ovest", "city": "Ferrara"}}, {"type": "Feature", "id": "419", "geometry": {"type": "Point", "coordinates": [11.648479, 44.829497]}, "properties": {"id": 782.0, "nome": "via Mari", "city": "Ferrara"}}, {"type": "Feature", "id": "420", "geometry": {"type": "Point", "coordinates": [11.627356, 44.824808]}, "properties": {"id": 284.0, "nome": "a", "city": "Ferrara"}}, {"type": "Feature", "id": "421", "geometry": {"type": "Point", "coordinates": [11.600528, 44.821047]}, "properties": {"id": 912.0, "nome": "collegamento da via Gandini a via Verga", "city": "Ferrara"}}, {"type": "Feature", "id": "422", "geometry": {"type": "Point", "coordinates": [11.607989, 44.875541]}, "properties": {"id": 69.0, "nome": "corso del Popolo", "city": "Ferrara"}}, {"type": "Feature", "id": "423", "geometry": {"type": "Point", "coordinates": [11.612467, 44.821258]}, "properties": {"id": 2.0, "nome": "via Boldrini da via Pesci a P.le Camicie Rosse", "city": "Ferrara"}}, {"type": "Feature", "id": "424", "geometry": {"type": "Point", "coordinates": [11.606625, 44.836081]}, "properties": {"id": 1129.0, "nome": "viale IV Novembre", "city": "Ferrara"}}, {"type": "Feature", "id": "425", "geometry": {"type": "Point", "coordinates": [11.629073, 44.823733]}, "properties": {"id": 9032.0, "nome": "San Maurelio", "city": "Ferrara"}}, {"type": "Feature", "id": "426", "geometry": {"type": "Point", "coordinates": [11.61057, 44.885568]}, "properties": {"id": 73.0, "nome": "via Ricostruzione", "city": "Ferrara"}}, {"type": "Feature", "id": "427", "geometry": {"type": "Point", "coordinates": [11.647741, 44.820547]}, "properties": {"id": 1209.0, "nome": "via Comacchio lato nord", "city": "Ferrara"}}, {"type": "Feature", "id": "428", "geometry": {"type": "Point", "coordinates": [11.664566, 44.839093]}, "properties": {"id": 991.0, "nome": null, "city": "Ferrara"}}, {"type": "Feature", "id": "429", "geometry": {"type": "Point", "coordinates": [11.598671, 44.826744]}, "properties": {"id": 23.0, "nome": "collegamento viale Krasnodar via Pisacane", "city": "Ferrara"}}, {"type": "Feature", "id": "430", "geometry": {"type": "Point", "coordinates": [11.60174, 44.829419]}, "properties": {"id": 711.0, "nome": null, "city": "Ferrara"}}, {"type": "Feature", "id": "431", "geometry": {"type": "Point", "coordinates": [11.59814, 44.825559]}, "properties": {"id": 262.0, "nome": "collegamento tra via Krasnodar e via Carducci", "city": "Ferrara"}}, {"type": "Feature", "id": "432", "geometry": {"type": "Point", "coordinates": [11.645618, 44.820613]}, "properties": {"id": 880.0, "nome": "via F. De' Andr\u00c3\u00a8", "city": "Ferrara"}}, {"type": "Feature", "id": "433", "geometry": {"type": "Point", "coordinates": [11.60444, 44.872385]}, "properties": {"id": 660.0, "nome": null, "city": "Ferrara"}}, {"type": "Feature", "id": "434", "geometry": {"type": "Point", "coordinates": [11.601952, 44.829741]}, "properties": {"id": 709.0, "nome": null, "city": "Ferrara"}}, {"type": "Feature", "id": "437", "geometry": {"type": "Point", "coordinates": [11.626208, 44.851722]}, "properties": {"id": 832.0, "nome": "Parco Urbano - via Azzo Novello", "city": "Ferrara"}}, {"type": "Feature", "id": "438", "geometry": {"type": "Point", "coordinates": [11.609135, 44.843138]}, "properties": {"id": 1194.0, "nome": "controviale Cavour lato sud", "city": "Ferrara"}}, {"type": "Feature", "id": "439", "geometry": {"type": "Point", "coordinates": [11.597247, 44.818069]}, "properties": {"id": 1218.0, "nome": "collegamento da via Franchi Bononi a via Piccolomi", "city": "Ferrara"}}, {"type": "Feature", "id": "440", "geometry": {"type": "Point", "coordinates": [11.642367, 44.832608]}, "properties": {"id": 764.0, "nome": "via San Contardo d'Este", "city": "Ferrara"}}, {"type": "Feature", "id": "441", "geometry": {"type": "Point", "coordinates": [11.613015, 44.829159]}, "properties": {"id": 1214.0, "nome": "via Bologna lato ovest", "city": "Ferrara"}}, {"type": "Feature", "id": "442", "geometry": {"type": "Point", "coordinates": [11.612719, 44.828855]}, "properties": {"id": 1215.0, "nome": "via Bologna lato ovest", "city": "Ferrara"}}, {"type": "Feature", "id": "443", "geometry": {"type": "Point", "coordinates": [11.597774, 44.826959]}, "properties": {"id": 1219.0, "nome": "viale Krasnodar", "city": "Ferrara"}}, {"type": "Feature", "id": "444", "geometry": {"type": "Point", "coordinates": [11.612015, 44.841359]}, "properties": {"id": 416.0, "nome": "via Vittorio Veneto", "city": "Ferrara"}}, {"type": "Feature", "id": "446", "geometry": {"type": "Point", "coordinates": [11.616153, 44.82667]}, "properties": {"id": 1203.0, "nome": "via Goretti da via Pastro a via Fabbri", "city": "Ferrara"}}, {"type": "Feature", "id": "447", "geometry": {"type": "Point", "coordinates": [11.648693, 44.862478]}, "properties": {"id": 977.0, "nome": null, "city": "Ferrara"}}, {"type": "Feature", "id": "449", "geometry": {"type": "Point", "coordinates": [11.651728, 44.851691]}, "properties": {"id": 92.0, "nome": "via Tebaldeo", "city": "Ferrara"}}, {"type": "Feature", "id": "451", "geometry": {"type": "Point", "coordinates": [11.621588, 44.825292]}, "properties": {"id": 1082.0, "nome": "ponte Volano", "city": "Ferrara"}}, {"type": "Feature", "id": "452", "geometry": {"type": "Point", "coordinates": [11.635192, 44.840981]}, "properties": {"id": 53.0, "nome": "P.le San Giovanni da via Gramicia a via degli Ange", "city": "Ferrara"}}, {"type": "Feature", "id": "453", "geometry": {"type": "Point", "coordinates": [11.636141, 44.822878]}, "properties": {"id": 1094.0, "nome": "via Comacchio da Ponte Caldirolo a Valle Fattibell", "city": "Ferrara"}}, {"type": "Feature", "id": "454", "geometry": {"type": "Point", "coordinates": [11.605831, 44.841111]}, "properties": {"id": 100.0, "nome": "sopramura Baluardo S. Maria", "city": "Ferrara"}}, {"type": "Feature", "id": "455", "geometry": {"type": "Point", "coordinates": [11.628511, 44.823247]}, "properties": {"id": 1011.0, "nome": null, "city": "Ferrara"}}, {"type": "Feature", "id": "456", "geometry": {"type": "Point", "coordinates": [11.606036, 44.865175]}, "properties": {"id": 1390.0, "nome": null, "city": "Ferrara"}}, {"type": "Feature", "id": "457", "geometry": {"type": "Point", "coordinates": [11.64792, 44.829567]}, "properties": {"id": 920.0, "nome": "via Mari", "city": "Ferrara"}}, {"type": "Feature", "id": "458", "geometry": {"type": "Point", "coordinates": [11.629141, 44.824323]}, "properties": {"id": 9033.0, "nome": "San Maurelio", "city": "Ferrara"}}, {"type": "Feature", "id": "459", "geometry": {"type": "Point", "coordinates": [11.65324, 44.892254]}, "properties": {"id": 587.0, "nome": "via Calzolai dal collegamento con via Gramicia a F", "city": "Ferrara"}}, {"type": "Feature", "id": "460", "geometry": {"type": "Point", "coordinates": [11.64284, 44.837513]}, "properties": {"id": 445.0, "nome": "collegamento da via del Melo a via dell'Acero", "city": "Ferrara"}}, {"type": "Feature", "id": "461", "geometry": {"type": "Point", "coordinates": [11.604982, 44.871067]}, "properties": {"id": 645.0, "nome": "Centro Diamante - via del Baiocco", "city": "Ferrara"}}, {"type": "Feature", "id": "463", "geometry": {"type": "Point", "coordinates": [11.606226, 44.850857]}, "properties": {"id": 953.0, "nome": null, "city": "Ferrara"}}, {"type": "Feature", "id": "464", "geometry": {"type": "Point", "coordinates": [11.647123, 44.83115]}, "properties": {"id": 915.0, "nome": "via Pontegradella", "city": "Ferrara"}}, {"type": "Feature", "id": "465", "geometry": {"type": "Point", "coordinates": [11.599267, 44.826727]}, "properties": {"id": 1070.0, "nome": "collegamento tra via Pisacane e Ippolito Nievo", "city": "Ferrara"}}, {"type": "Feature", "id": "466", "geometry": {"type": "Point", "coordinates": [11.614104, 44.856644]}, "properties": {"id": 437.0, "nome": "via Canapa lato est", "city": "Ferrara"}}, {"type": "Feature", "id": "467", "geometry": {"type": "Point", "coordinates": [11.608947, 44.843174]}, "properties": {"id": 315.0, "nome": "viale IV Novembre Cavour", "city": "Ferrara"}}, {"type": "Feature", "id": "468", "geometry": {"type": "Point", "coordinates": [11.551921, 44.858484]}, "properties": {"id": 748.0, "nome": null, "city": "Ferrara"}}, {"type": "Feature", "id": "469", "geometry": {"type": "Point", "coordinates": [11.605089, 44.82768]}, "properties": {"id": 726.0, "nome": null, "city": "Ferrara"}}, {"type": "Feature", "id": "470", "geometry": {"type": "Point", "coordinates": [11.635145, 44.837489]}, "properties": {"id": 263.0, "nome": "Sottomura est e degli Angeli", "city": "Ferrara"}}, {"type": "Feature", "id": "471", "geometry": {"type": "Point", "coordinates": [11.602814, 44.840659]}, "properties": {"id": 1226.0, "nome": "via San Giacomo lato est", "city": "Ferrara"}}, {"type": "Feature", "id": "472", "geometry": {"type": "Point", "coordinates": [11.629193, 44.821577]}, "properties": {"id": 305.0, "nome": "via Ravenna San Giorgio", "city": "Ferrara"}}, {"type": "Feature", "id": "474", "geometry": {"type": "Point", "coordinates": [11.611931, 44.837721]}, "properties": {"id": 1237.0, "nome": "corso Isonzo lato est", "city": "Ferrara"}}, {"type": "Feature", "id": "475", "geometry": {"type": "Point", "coordinates": [11.621745, 44.825183]}, "properties": {"id": 1081.0, "nome": "ponte Volano", "city": "Ferrara"}}, {"type": "Feature", "id": "476", "geometry": {"type": "Point", "coordinates": [11.633596, 44.831988]}, "properties": {"id": 457.0, "nome": "via R.ri San Rocco", "city": "Ferrara"}}, {"type": "Feature", "id": "478", "geometry": {"type": "Point", "coordinates": [11.612237, 44.883809]}, "properties": {"id": 743.0, "nome": null, "city": "Ferrara"}}, {"type": "Feature", "id": "479", "geometry": {"type": "Point", "coordinates": [11.605215, 44.873832]}, "properties": {"id": 636.0, "nome": null, "city": "Ferrara"}}, {"type": "Feature", "id": "481", "geometry": {"type": "Point", "coordinates": [11.620396, 44.849717]}, "properties": {"id": 812.0, "nome": "via Azzo Novello", "city": "Ferrara"}}, {"type": "Feature", "id": "482", "geometry": {"type": "Point", "coordinates": [11.648158, 44.822963]}, "properties": {"id": 877.0, "nome": null, "city": "Ferrara"}}, {"type": "Feature", "id": "483", "geometry": {"type": "Point", "coordinates": [11.613074, 44.821902]}, "properties": {"id": 4.0, "nome": "via Boldridni da via Grillenzoni a via Canani", "city": "Ferrara"}}, {"type": "Feature", "id": "484", "geometry": {"type": "Point", "coordinates": [11.632174, 44.828329]}, "properties": {"id": 1189.0, "nome": "sopramura Alfonso d'Este", "city": "Ferrara"}}, {"type": "Feature", "id": "485", "geometry": {"type": "Point", "coordinates": [11.613081, 44.823877]}, "properties": {"id": 1122.0, "nome": "via Poletti Ippodromo", "city": "Ferrara"}}, {"type": "Feature", "id": "486", "geometry": {"type": "Point", "coordinates": [11.604379, 44.867526]}, "properties": {"id": 949.0, "nome": "via Baiocco/Baruchello", "city": "Ferrara"}}, {"type": "Feature", "id": "487", "geometry": {"type": "Point", "coordinates": [11.660305, 44.901463]}, "properties": {"id": 892.0, "nome": "Francolino: collegamento via della Carpa e via del", "city": "Ferrara"}}, {"type": "Feature", "id": "488", "geometry": {"type": "Point", "coordinates": [11.629275, 44.84363]}, "properties": {"id": 423.0, "nome": null, "city": "Ferrara"}}, {"type": "Feature", "id": "489", "geometry": {"type": "Point", "coordinates": [11.580088, 44.847554]}, "properties": {"id": 406.0, "nome": "via Modena", "city": "Ferrara"}}, {"type": "Feature", "id": "490", "geometry": {"type": "Point", "coordinates": [11.599383, 44.847912]}, "properties": {"id": 1350.0, "nome": "via Marconi", "city": "Ferrara"}}, {"type": "Feature", "id": "491", "geometry": {"type": "Point", "coordinates": [11.605271, 44.840588]}, "properties": {"id": 101.0, "nome": "sopramura Baluardo S. Maria", "city": "Ferrara"}}, {"type": "Feature", "id": "494", "geometry": {"type": "Point", "coordinates": [11.649731, 44.827727]}, "properties": {"id": 770.0, "nome": "via Mari", "city": "Ferrara"}}, {"type": "Feature", "id": "495", "geometry": {"type": "Point", "coordinates": [11.630701, 44.849848]}, "properties": {"id": 818.0, "nome": "Parco Urbano lato parallello a via Bacchelli", "city": "Ferrara"}}, {"type": "Feature", "id": "496", "geometry": {"type": "Point", "coordinates": [11.662535, 44.847152]}, "properties": {"id": 1107.0, "nome": null, "city": "Ferrara"}}, {"type": "Feature", "id": "497", "geometry": {"type": "Point", "coordinates": [11.60608, 44.822243]}, "properties": {"id": 1099.0, "nome": null, "city": "Ferrara"}}, {"type": "Feature", "id": "498", "geometry": {"type": "Point", "coordinates": [11.632145, 44.825826]}, "properties": {"id": 1202.0, "nome": "Bagni Ducali", "city": "Ferrara"}}, {"type": "Feature", "id": "499", "geometry": {"type": "Point", "coordinates": [11.580841, 44.844951]}, "properties": {"id": 28.0, "nome": "via Schiavoni", "city": "Ferrara"}}, {"type": "Feature", "id": "500", "geometry": {"type": "Point", "coordinates": [11.606539, 44.835733]}, "properties": {"id": 1181.0, "nome": "via Darsena via IV Novembre", "city": "Ferrara"}}, {"type": "Feature", "id": "501", "geometry": {"type": "Point", "coordinates": [11.621664, 44.82788]}, "properties": {"id": 292.0, "nome": "sottomura Quartieri", "city": "Ferrara"}}, {"type": "Feature", "id": "504", "geometry": {"type": "Point", "coordinates": [11.614705, 44.823815]}, "properties": {"id": 20.0, "nome": "collegamento da via Pastro a via Poletti", "city": "Ferrara"}}, {"type": "Feature", "id": "505", "geometry": {"type": "Point", "coordinates": [11.598897, 44.830002]}, "properties": {"id": 673.0, "nome": "via dello Zucchero", "city": "Ferrara"}}, {"type": "Feature", "id": "507", "geometry": {"type": "Point", "coordinates": [11.543056, 44.850367]}, "properties": {"id": 1337.0, "nome": null, "city": "Ferrara"}}, {"type": "Feature", "id": "508", "geometry": {"type": "Point", "coordinates": [11.627805, 44.842934]}, "properties": {"id": 1393.0, "nome": "via delle Erbe", "city": "Ferrara"}}, {"type": "Feature", "id": "509", "geometry": {"type": "Point", "coordinates": [11.641796, 44.828721]}, "properties": {"id": 242.0, "nome": "via Francia", "city": "Ferrara"}}, {"type": "Feature", "id": "510", "geometry": {"type": "Point", "coordinates": [11.628376, 44.823661]}, "properties": {"id": 34.0, "nome": "via Volano", "city": "Ferrara"}}, {"type": "Feature", "id": "511", "geometry": {"type": "Point", "coordinates": [11.584016, 44.846701]}, "properties": {"id": 968.0, "nome": null, "city": "Ferrara"}}, {"type": "Feature", "id": "512", "geometry": {"type": "Point", "coordinates": [11.624654, 44.824011]}, "properties": {"id": 16.0, "nome": "via Volano", "city": "Ferrara"}}, {"type": "Feature", "id": "514", "geometry": {"type": "Point", "coordinates": [11.619039, 44.824933]}, "properties": {"id": 1369.0, "nome": null, "city": "Ferrara"}}, {"type": "Feature", "id": "515", "geometry": {"type": "Point", "coordinates": [11.594648, 44.82488]}, "properties": {"id": 700.0, "nome": null, "city": "Ferrara"}}, {"type": "Feature", "id": "516", "geometry": {"type": "Point", "coordinates": [11.614588, 44.847766]}, "properties": {"id": 1072.0, "nome": "v.le Partigiani d'Italia", "city": "Ferrara"}}, {"type": "Feature", "id": "518", "geometry": {"type": "Point", "coordinates": [11.605208, 44.829389]}, "properties": {"id": 1128.0, "nome": "via Foro Boario", "city": "Ferrara"}}, {"type": "Feature", "id": "520", "geometry": {"type": "Point", "coordinates": [11.605748, 44.851069]}, "properties": {"id": 64.0, "nome": "parallela a via Padova da via Agni a via Picelli", "city": "Ferrara"}}, {"type": "Feature", "id": "521", "geometry": {"type": "Point", "coordinates": [11.634533, 44.837592]}, "properties": {"id": 1146.0, "nome": "via R.ri San Rocco", "city": "Ferrara"}}, {"type": "Feature", "id": "522", "geometry": {"type": "Point", "coordinates": [11.634481, 44.820074]}, "properties": {"id": 882.0, "nome": null, "city": "Ferrara"}}, {"type": "Feature", "id": "523", "geometry": {"type": "Point", "coordinates": [11.633159, 44.832069]}, "properties": {"id": 464.0, "nome": "via R.ri San Rocco", "city": "Ferrara"}}, {"type": "Feature", "id": "524", "geometry": {"type": "Point", "coordinates": [11.633849, 44.831787]}, "properties": {"id": 452.0, "nome": "P.le Medaglie d'Oro- Via Caldirolo", "city": "Ferrara"}}, {"type": "Feature", "id": "525", "geometry": {"type": "Point", "coordinates": [11.594021, 44.812888]}, "properties": {"id": 7.0, "nome": "via Bologna lato ovest", "city": "Ferrara"}}, {"type": "Feature", "id": "526", "geometry": {"type": "Point", "coordinates": [11.617388, 44.826805]}, "properties": {"id": 470.0, "nome": "via G. Fabbri da via Goretti a via Bologna", "city": "Ferrara"}}, {"type": "Feature", "id": "527", "geometry": {"type": "Point", "coordinates": [11.634397, 44.840704]}, "properties": {"id": 9034.0, "nome": null, "city": "Ferrara"}}, {"type": "Feature", "id": "528", "geometry": {"type": "Point", "coordinates": [11.613837, 44.848323]}, "properties": {"id": 802.0, "nome": "Sottomura via Bacchelli da via Azzo Novello a via", "city": "Ferrara"}}, {"type": "Feature", "id": "530", "geometry": {"type": "Point", "coordinates": [11.603484, 44.828946]}, "properties": {"id": 723.0, "nome": null, "city": "Ferrara"}}, {"type": "Feature", "id": "531", "geometry": {"type": "Point", "coordinates": [11.634734, 44.822475]}, "properties": {"id": 1355.0, "nome": "via Comacchio", "city": "Ferrara"}}, {"type": "Feature", "id": "532", "geometry": {"type": "Point", "coordinates": [11.579944, 44.847446]}, "properties": {"id": 557.0, "nome": "via Modena", "city": "Ferrara"}}, {"type": "Feature", "id": "533", "geometry": {"type": "Point", "coordinates": [11.645634, 44.843469]}, "properties": {"id": 1135.0, "nome": "da via Chizzolini a via Bellonci", "city": "Ferrara"}}, {"type": "Feature", "id": "534", "geometry": {"type": "Point", "coordinates": [11.633392, 44.831334]}, "properties": {"id": 40.0, "nome": "P.le Medaglie d'Oro", "city": "Ferrara"}}, {"type": "Feature", "id": "535", "geometry": {"type": "Point", "coordinates": [11.602676, 44.831286]}, "properties": {"id": 1396.0, "nome": null, "city": "Ferrara"}}, {"type": "Feature", "id": "536", "geometry": {"type": "Point", "coordinates": [11.621297, 44.827929]}, "properties": {"id": 290.0, "nome": "sottomura Porta San Pietro", "city": "Ferrara"}}, {"type": "Feature", "id": "537", "geometry": {"type": "Point", "coordinates": [11.59813, 44.827539]}, "properties": {"id": 22.0, "nome": "collegamento viale Krasnodar via Pisacane", "city": "Ferrara"}}, {"type": "Feature", "id": "538", "geometry": {"type": "Point", "coordinates": [11.613144, 44.821872]}, "properties": {"id": 1182.0, "nome": "via Boldrini da via Grillenzoni a via Canani", "city": "Ferrara"}}, {"type": "Feature", "id": "539", "geometry": {"type": "Point", "coordinates": [11.642069, 44.82894]}, "properties": {"id": 243.0, "nome": "via Pontegradella", "city": "Ferrara"}}, {"type": "Feature", "id": "540", "geometry": {"type": "Point", "coordinates": [11.634033, 44.840746]}, "properties": {"id": 1077.0, "nome": "via Guido d'Arezzo", "city": "Ferrara"}}, {"type": "Feature", "id": "541", "geometry": {"type": "Point", "coordinates": [11.613366, 44.858524]}, "properties": {"id": 1345.0, "nome": "via Canapa lato ovest", "city": "Ferrara"}}, {"type": "Feature", "id": "544", "geometry": {"type": "Point", "coordinates": [11.622315, 44.850501]}, "properties": {"id": 816.0, "nome": "Parco Urbano lato parallello a via Bacchelli", "city": "Ferrara"}}, {"type": "Feature", "id": "545", "geometry": {"type": "Point", "coordinates": [11.647897, 44.86305]}, "properties": {"id": 979.0, "nome": null, "city": "Ferrara"}}, {"type": "Feature", "id": "546", "geometry": {"type": "Point", "coordinates": [11.618249, 44.82821]}, "properties": {"id": 18.0, "nome": "via Volano", "city": "Ferrara"}}, {"type": "Feature", "id": "547", "geometry": {"type": "Point", "coordinates": [11.631933, 44.822429]}, "properties": {"id": 908.0, "nome": "via Comacchio", "city": "Ferrara"}}, {"type": "Feature", "id": "548", "geometry": {"type": "Point", "coordinates": [11.620717, 44.852182]}, "properties": {"id": 1367.0, "nome": null, "city": "Ferrara"}}, {"type": "Feature", "id": "549", "geometry": {"type": "Point", "coordinates": [11.621339, 44.824872]}, "properties": {"id": 468.0, "nome": "ponte Volano", "city": "Ferrara"}}, {"type": "Feature", "id": "550", "geometry": {"type": "Point", "coordinates": [11.613301, 44.829385]}, "properties": {"id": 358.0, "nome": "via Bologna lato ovest", "city": "Ferrara"}}, {"type": "Feature", "id": "551", "geometry": {"type": "Point", "coordinates": [11.606787, 44.841467]}, "properties": {"id": 382.0, "nome": "viale IV Novembre", "city": "Ferrara"}}, {"type": "Feature", "id": "552", "geometry": {"type": "Point", "coordinates": [11.606339, 44.85304]}, "properties": {"id": 666.0, "nome": "via Padova", "city": "Ferrara"}}, {"type": "Feature", "id": "553", "geometry": {"type": "Point", "coordinates": [11.582631, 44.846317]}, "properties": {"id": 970.0, "nome": null, "city": "Ferrara"}}, {"type": "Feature", "id": "554", "geometry": {"type": "Point", "coordinates": [11.657478, 44.898337]}, "properties": {"id": 1142.0, "nome": "via Calzolai dal collegamento con via Gramicia a F", "city": "Ferrara"}}, {"type": "Feature", "id": "555", "geometry": {"type": "Point", "coordinates": [11.607057, 44.8233]}, "properties": {"id": 371.0, "nome": "via Bologna lato ovest", "city": "Ferrara"}}, {"type": "Feature", "id": "556", "geometry": {"type": "Point", "coordinates": [11.633623, 44.832449]}, "properties": {"id": 463.0, "nome": "via R.ri San Rocco", "city": "Ferrara"}}, {"type": "Feature", "id": "557", "geometry": {"type": "Point", "coordinates": [11.594604, 44.82216]}, "properties": {"id": 1307.0, "nome": "sottopasso via Beethoven", "city": "Ferrara"}}, {"type": "Feature", "id": "559", "geometry": {"type": "Point", "coordinates": [11.650136, 44.862749]}, "properties": {"id": 974.0, "nome": null, "city": "Ferrara"}}, {"type": "Feature", "id": "560", "geometry": {"type": "Point", "coordinates": [11.614739, 44.830447]}, "properties": {"id": 351.0, "nome": "via Bologna da Travaglio a Foro Boario", "city": "Ferrara"}}, {"type": "Feature", "id": "561", "geometry": {"type": "Point", "coordinates": [11.601298, 44.821884]}, "properties": {"id": 913.0, "nome": "collegamento da via Gandini a via Verga", "city": "Ferrara"}}, {"type": "Feature", "id": "562", "geometry": {"type": "Point", "coordinates": [11.609311, 44.849692]}, "properties": {"id": 58.0, "nome": "collegamento da via Bianchi a via Rosa Angelini", "city": "Ferrara"}}, {"type": "Feature", "id": "563", "geometry": {"type": "Point", "coordinates": [11.55024, 44.848573]}, "properties": {"id": 1191.0, "nome": "via Ladino collegamento via Mazzolani", "city": "Ferrara"}}, {"type": "Feature", "id": "564", "geometry": {"type": "Point", "coordinates": [11.614378, 44.8303]}, "properties": {"id": 360.0, "nome": "via Bologna lato ovest", "city": "Ferrara"}}, {"type": "Feature", "id": "565", "geometry": {"type": "Point", "coordinates": [11.614808, 44.850002]}, "properties": {"id": 1190.0, "nome": "Sottomura via Porta Catena da via Bacchelli a via", "city": "Ferrara"}}, {"type": "Feature", "id": "566", "geometry": {"type": "Point", "coordinates": [11.617534, 44.831105]}, "properties": {"id": 10.0, "nome": "sopramura via Baluardi", "city": "Ferrara"}}, {"type": "Feature", "id": "567", "geometry": {"type": "Point", "coordinates": [11.618146, 44.850076]}, "properties": {"id": 805.0, "nome": "Sottomura via Bacchelli da via Azzo Novello a via", "city": "Ferrara"}}, {"type": "Feature", "id": "568", "geometry": {"type": "Point", "coordinates": [11.632637, 44.831049]}, "properties": {"id": 1246.0, "nome": "V.le Alfonso d'Este", "city": "Ferrara"}}, {"type": "Feature", "id": "569", "geometry": {"type": "Point", "coordinates": [11.650192, 44.828442]}, "properties": {"id": 1102.0, "nome": null, "city": "Ferrara"}}, {"type": "Feature", "id": "570", "geometry": {"type": "Point", "coordinates": [11.579457, 44.847392]}, "properties": {"id": 408.0, "nome": "via Modena", "city": "Ferrara"}}, {"type": "Feature", "id": "571", "geometry": {"type": "Point", "coordinates": [11.618755, 44.818454]}, "properties": {"id": 341.0, "nome": "collegamento da via Fabbri alla Rivana", "city": "Ferrara"}}, {"type": "Feature", "id": "572", "geometry": {"type": "Point", "coordinates": [11.5838, 44.846332]}, "properties": {"id": 971.0, "nome": null, "city": "Ferrara"}}, {"type": "Feature", "id": "573", "geometry": {"type": "Point", "coordinates": [11.604313, 44.841044]}, "properties": {"id": 390.0, "nome": "corso Piave lato sud", "city": "Ferrara"}}, {"type": "Feature", "id": "574", "geometry": {"type": "Point", "coordinates": [11.605102, 44.840646]}, "properties": {"id": 391.0, "nome": "corso Piave lato sud", "city": "Ferrara"}}, {"type": "Feature", "id": "576", "geometry": {"type": "Point", "coordinates": [11.649689, 44.829376]}, "properties": {"id": 783.0, "nome": "via Mari", "city": "Ferrara"}}, {"type": "Feature", "id": "577", "geometry": {"type": "Point", "coordinates": [11.546599, 44.851051]}, "properties": {"id": 635.0, "nome": null, "city": "Ferrara"}}, {"type": "Feature", "id": "578", "geometry": {"type": "Point", "coordinates": [11.619548, 44.8438]}, "properties": {"id": 1138.0, "nome": "via Gianfranco Rossi", "city": "Ferrara"}}, {"type": "Feature", "id": "579", "geometry": {"type": "Point", "coordinates": [11.599141, 44.815349]}, "properties": {"id": 8.0, "nome": "via Bologna lato ovest", "city": "Ferrara"}}, {"type": "Feature", "id": "580", "geometry": {"type": "Point", "coordinates": [11.645668, 44.820225]}, "properties": {"id": 881.0, "nome": "via F. De' Andr\u00c3\u00a8", "city": "Ferrara"}}, {"type": "Feature", "id": "582", "geometry": {"type": "Point", "coordinates": [11.629632, 44.822329]}, "properties": {"id": 304.0, "nome": "via Ravenna", "city": "Ferrara"}}, {"type": "Feature", "id": "583", "geometry": {"type": "Point", "coordinates": [11.598374, 44.825982]}, "properties": {"id": 24.0, "nome": "collegamento viale Krasnodar via Pisacane", "city": "Ferrara"}}, {"type": "Feature", "id": "584", "geometry": {"type": "Point", "coordinates": [11.543661, 44.850534]}, "properties": {"id": 621.0, "nome": "Pista ciclabile urbana", "city": "Ferrara"}}, {"type": "Feature", "id": "585", "geometry": {"type": "Point", "coordinates": [11.64108, 44.838601]}, "properties": {"id": 448.0, "nome": "collegamento da Via Borgo Punta a via Del Melo", "city": "Ferrara"}}, {"type": "Feature", "id": "586", "geometry": {"type": "Point", "coordinates": [11.604345, 44.820541]}, "properties": {"id": 375.0, "nome": "via Bologna lato ovest", "city": "Ferrara"}}, {"type": "Feature", "id": "587", "geometry": {"type": "Point", "coordinates": [11.647803, 44.843142]}, "properties": {"id": 9001.0, "nome": "via Caretti: collegamento via Copparo", "city": "Ferrara"}}, {"type": "Feature", "id": "588", "geometry": {"type": "Point", "coordinates": [11.599613, 44.842668]}, "properties": {"id": 1235.0, "nome": "via del Lavoro", "city": "Ferrara"}}, {"type": "Feature", "id": "589", "geometry": {"type": "Point", "coordinates": [11.610435, 44.826638]}, "properties": {"id": 349.0, "nome": "via Bologna da Travaglio a Foro Boario", "city": "Ferrara"}}, {"type": "Feature", "id": "590", "geometry": {"type": "Point", "coordinates": [11.63445, 44.822596]}, "properties": {"id": 911.0, "nome": "via Comacchio", "city": "Ferrara"}}, {"type": "Feature", "id": "592", "geometry": {"type": "Point", "coordinates": [11.60774, 44.842353]}, "properties": {"id": 386.0, "nome": "viale IV Novembre", "city": "Ferrara"}}, {"type": "Feature", "id": "593", "geometry": {"type": "Point", "coordinates": [11.634297, 44.831278]}, "properties": {"id": 1400.0, "nome": null, "city": "Ferrara"}}, {"type": "Feature", "id": "594", "geometry": {"type": "Point", "coordinates": [11.629476, 44.844297]}, "properties": {"id": 1008.0, "nome": "via delle Erbe", "city": "Ferrara"}}, {"type": "Feature", "id": "596", "geometry": {"type": "Point", "coordinates": [11.613147, 44.848994]}, "properties": {"id": 808.0, "nome": "viale F. Tumiati", "city": "Ferrara"}}, {"type": "Feature", "id": "597", "geometry": {"type": "Point", "coordinates": [11.604957, 44.838907]}, "properties": {"id": 381.0, "nome": "viale IV Novembre", "city": "Ferrara"}}, {"type": "Feature", "id": "598", "geometry": {"type": "Point", "coordinates": [11.623955, 44.825873]}, "properties": {"id": 14.0, "nome": "sopramura via Baluardi", "city": "Ferrara"}}, {"type": "Feature", "id": "600", "geometry": {"type": "Point", "coordinates": [11.64983, 44.846342]}, "properties": {"id": 80.0, "nome": "via Guido Carli", "city": "Ferrara"}}, {"type": "Feature", "id": "601", "geometry": {"type": "Point", "coordinates": [11.604407, 44.868149]}, "properties": {"id": 948.0, "nome": "via Baiocco/Baruchello", "city": "Ferrara"}}, {"type": "Feature", "id": "602", "geometry": {"type": "Point", "coordinates": [11.622451, 44.833297]}, "properties": {"id": 1200.0, "nome": "via Scienze", "city": "Ferrara"}}, {"type": "Feature", "id": "604", "geometry": {"type": "Point", "coordinates": [11.609616, 44.880561]}, "properties": {"id": 120.0, "nome": "via Venezia", "city": "Ferrara"}}, {"type": "Feature", "id": "605", "geometry": {"type": "Point", "coordinates": [11.634585, 44.834451]}, "properties": {"id": 1148.0, "nome": "via R.ri San Rocco", "city": "Ferrara"}}, {"type": "Feature", "id": "606", "geometry": {"type": "Point", "coordinates": [11.612126, 44.854726]}, "properties": {"id": 843.0, "nome": "via Don Giovanni Bosco", "city": "Ferrara"}}, {"type": "Feature", "id": "607", "geometry": {"type": "Point", "coordinates": [11.578737, 44.847064]}, "properties": {"id": 411.0, "nome": "via Modena", "city": "Ferrara"}}, {"type": "Feature", "id": "608", "geometry": {"type": "Point", "coordinates": [11.635172, 44.821129]}, "properties": {"id": 1354.0, "nome": "via De Chirico", "city": "Ferrara"}}, {"type": "Feature", "id": "609", "geometry": {"type": "Point", "coordinates": [11.633288, 44.819697]}, "properties": {"id": 885.0, "nome": null, "city": "Ferrara"}}, {"type": "Feature", "id": "610", "geometry": {"type": "Point", "coordinates": [11.633612, 44.849044]}, "properties": {"id": 1003.0, "nome": null, "city": "Ferrara"}}, {"type": "Feature", "id": "611", "geometry": {"type": "Point", "coordinates": [11.60362, 44.845929]}, "properties": {"id": 946.0, "nome": "viale Po", "city": "Ferrara"}}, {"type": "Feature", "id": "612", "geometry": {"type": "Point", "coordinates": [11.605873, 44.872639]}, "properties": {"id": 324.0, "nome": "via della Giustizia", "city": "Ferrara"}}, {"type": "Feature", "id": "613", "geometry": {"type": "Point", "coordinates": [11.635002, 44.831099]}, "properties": {"id": 1279.0, "nome": null, "city": "Ferrara"}}, {"type": "Feature", "id": "614", "geometry": {"type": "Point", "coordinates": [11.608185, 44.859688]}, "properties": {"id": 1346.0, "nome": "via Bentivoglio raccordo", "city": "Ferrara"}}, {"type": "Feature", "id": "615", "geometry": {"type": "Point", "coordinates": [11.615246, 44.828745]}, "properties": {"id": 469.0, "nome": "via G. Fabbri da via Goretti a via Bologna", "city": "Ferrara"}}, {"type": "Feature", "id": "616", "geometry": {"type": "Point", "coordinates": [11.647839, 44.835034]}, "properties": {"id": 1338.0, "nome": null, "city": "Ferrara"}}, {"type": "Feature", "id": "617", "geometry": {"type": "Point", "coordinates": [11.645526, 44.831699]}, "properties": {"id": 906.0, "nome": "via Caretti", "city": "Ferrara"}}, {"type": "Feature", "id": "618", "geometry": {"type": "Point", "coordinates": [11.633173, 44.820162]}, "properties": {"id": 888.0, "nome": null, "city": "Ferrara"}}, {"type": "Feature", "id": "619", "geometry": {"type": "Point", "coordinates": [11.646558, 44.831266]}, "properties": {"id": 1312.0, "nome": "collegamento da via Caretti a via Pontegradella a", "city": "Ferrara"}}, {"type": "Feature", "id": "620", "geometry": {"type": "Point", "coordinates": [11.645739, 44.845194]}, "properties": {"id": 1090.0, "nome": "Percorso da via Copparo a via Chizzolini", "city": "Ferrara"}}, {"type": "Feature", "id": "621", "geometry": {"type": "Point", "coordinates": [11.580281, 44.847585]}, "properties": {"id": 407.0, "nome": "via Modena", "city": "Ferrara"}}, {"type": "Feature", "id": "622", "geometry": {"type": "Point", "coordinates": [11.649829, 44.829392]}, "properties": {"id": 781.0, "nome": "via Mari", "city": "Ferrara"}}, {"type": "Feature", "id": "624", "geometry": {"type": "Point", "coordinates": [11.605307, 44.827748]}, "properties": {"id": 724.0, "nome": null, "city": "Ferrara"}}, {"type": "Feature", "id": "626", "geometry": {"type": "Point", "coordinates": [11.582173, 44.849433]}, "properties": {"id": 1329.0, "nome": null, "city": "Ferrara"}}, {"type": "Feature", "id": "627", "geometry": {"type": "Point", "coordinates": [11.63252, 44.825414]}, "properties": {"id": 38.0, "nome": "sottomura Caldirolo", "city": "Ferrara"}}, {"type": "Feature", "id": "628", "geometry": {"type": "Point", "coordinates": [11.613589, 44.848767]}, "properties": {"id": 807.0, "nome": "viale F. Tumiati", "city": "Ferrara"}}, {"type": "Feature", "id": "629", "geometry": {"type": "Point", "coordinates": [11.685201, 44.863924]}, "properties": {"id": 1371.0, "nome": null, "city": "Ferrara"}}, {"type": "Feature", "id": "630", "geometry": {"type": "Point", "coordinates": [11.600603, 44.847376]}, "properties": {"id": 945.0, "nome": "viale Po", "city": "Ferrara"}}, {"type": "Feature", "id": "631", "geometry": {"type": "Point", "coordinates": [11.601093, 44.84632]}, "properties": {"id": 1228.0, "nome": "via Modena", "city": "Ferrara"}}, {"type": "Feature", "id": "632", "geometry": {"type": "Point", "coordinates": [11.609041, 44.843648]}, "properties": {"id": 1198.0, "nome": "viale Cavour Po", "city": "Ferrara"}}, {"type": "Feature", "id": "633", "geometry": {"type": "Point", "coordinates": [11.582323, 44.847628]}, "properties": {"id": 404.0, "nome": "via Modena", "city": "Ferrara"}}, {"type": "Feature", "id": "634", "geometry": {"type": "Point", "coordinates": [11.60236, 44.82717]}, "properties": {"id": 107.0, "nome": "collegametno da via Ravera a via Barlaam", "city": "Ferrara"}}, {"type": "Feature", "id": "635", "geometry": {"type": "Point", "coordinates": [11.661182, 44.903185]}, "properties": {"id": 893.0, "nome": "Francolino: collegamento via della Carpa e via del", "city": "Ferrara"}}, {"type": "Feature", "id": "637", "geometry": {"type": "Point", "coordinates": [11.633775, 44.844785]}, "properties": {"id": 270.0, "nome": "Sottomura via Gramicia", "city": "Ferrara"}}, {"type": "Feature", "id": "638", "geometry": {"type": "Point", "coordinates": [11.60785, 44.844487]}, "properties": {"id": 399.0, "nome": "viale Po giardini", "city": "Ferrara"}}, {"type": "Feature", "id": "639", "geometry": {"type": "Point", "coordinates": [11.598287, 44.829208]}, "properties": {"id": 1359.0, "nome": "via dello Zucchero", "city": "Ferrara"}}, {"type": "Feature", "id": "640", "geometry": {"type": "Point", "coordinates": [11.607042, 44.823004]}, "properties": {"id": 357.0, "nome": "via Bologna da Foro Boario a rotatoria Wagner", "city": "Ferrara"}}, {"type": "Feature", "id": "641", "geometry": {"type": "Point", "coordinates": [11.632335, 44.829979]}, "properties": {"id": 276.0, "nome": "sopramura Caldirolo", "city": "Ferrara"}}, {"type": "Feature", "id": "642", "geometry": {"type": "Point", "coordinates": [11.605117, 44.833989]}, "properties": {"id": 379.0, "nome": "via Ippolito d'Este", "city": "Ferrara"}}, {"type": "Feature", "id": "643", "geometry": {"type": "Point", "coordinates": [11.595955, 44.823956]}, "properties": {"id": 697.0, "nome": null, "city": "Ferrara"}}, {"type": "Feature", "id": "645", "geometry": {"type": "Point", "coordinates": [11.596293, 44.838194]}, "properties": {"id": 943.0, "nome": "via Rita Levi Montalcini", "city": "Ferrara"}}, {"type": "Feature", "id": "646", "geometry": {"type": "Point", "coordinates": [11.600989, 44.842166]}, "properties": {"id": 942.0, "nome": null, "city": "Ferrara"}}, {"type": "Feature", "id": "647", "geometry": {"type": "Point", "coordinates": [11.650049, 44.829042]}, "properties": {"id": 784.0, "nome": "via Mari", "city": "Ferrara"}}, {"type": "Feature", "id": "648", "geometry": {"type": "Point", "coordinates": [11.686235, 44.862295]}, "properties": {"id": 1373.0, "nome": null, "city": "Ferrara"}}, {"type": "Feature", "id": "649", "geometry": {"type": "Point", "coordinates": [11.579467, 44.847393]}, "properties": {"id": 409.0, "nome": "via Modena", "city": "Ferrara"}}, {"type": "Feature", "id": "651", "geometry": {"type": "Point", "coordinates": [11.60302, 44.827397]}, "properties": {"id": 1119.0, "nome": null, "city": "Ferrara"}}, {"type": "Feature", "id": "652", "geometry": {"type": "Point", "coordinates": [11.614677, 44.830634]}, "properties": {"id": 366.0, "nome": "via Bologna lato ovest", "city": "Ferrara"}}, {"type": "Feature", "id": "653", "geometry": {"type": "Point", "coordinates": [11.608118, 44.844175]}, "properties": {"id": 395.0, "nome": "viale Cavour giardini Costituzione", "city": "Ferrara"}}, {"type": "Feature", "id": "654", "geometry": {"type": "Point", "coordinates": [11.649321, 44.827916]}, "properties": {"id": 924.0, "nome": "via Mari", "city": "Ferrara"}}, {"type": "Feature", "id": "655", "geometry": {"type": "Point", "coordinates": [11.608, 44.824313]}, "properties": {"id": 372.0, "nome": "via Bologna lato ovest", "city": "Ferrara"}}, {"type": "Feature", "id": "656", "geometry": {"type": "Point", "coordinates": [11.627268, 44.824854]}, "properties": {"id": 858.0, "nome": null, "city": "Ferrara"}}, {"type": "Feature", "id": "658", "geometry": {"type": "Point", "coordinates": [11.604003, 44.842086]}, "properties": {"id": 1114.0, "nome": "via San Giacomo", "city": "Ferrara"}}, {"type": "Feature", "id": "659", "geometry": {"type": "Point", "coordinates": [11.643868, 44.843606]}, "properties": {"id": 1143.0, "nome": "via Elsa Morante: da via Chizzolini a via Bellonci", "city": "Ferrara"}}, {"type": "Feature", "id": "660", "geometry": {"type": "Point", "coordinates": [11.602891, 44.827698]}, "properties": {"id": 106.0, "nome": "collegametno da via Ravera a via Barlaam", "city": "Ferrara"}}, {"type": "Feature", "id": "662", "geometry": {"type": "Point", "coordinates": [11.602753, 44.817383]}, "properties": {"id": 1306.0, "nome": null, "city": "Ferrara"}}, {"type": "Feature", "id": "663", "geometry": {"type": "Point", "coordinates": [11.660691, 44.847224]}, "properties": {"id": 572.0, "nome": null, "city": "Ferrara"}}, {"type": "Feature", "id": "665", "geometry": {"type": "Point", "coordinates": [11.621744, 44.827819]}, "properties": {"id": 12.0, "nome": "sopramura via Baluardi", "city": "Ferrara"}}, {"type": "Feature", "id": "666", "geometry": {"type": "Point", "coordinates": [11.641896, 44.828607]}, "properties": {"id": 932.0, "nome": "collegamento parallelo a via Pontegradella da via", "city": "Ferrara"}}, {"type": "Feature", "id": "667", "geometry": {"type": "Point", "coordinates": [11.601485, 44.83026]}, "properties": {"id": 718.0, "nome": null, "city": "Ferrara"}}, {"type": "Feature", "id": "668", "geometry": {"type": "Point", "coordinates": [11.642186, 44.827997]}, "properties": {"id": 933.0, "nome": "collegamento parallelo a via Pontegradella da via", "city": "Ferrara"}}, {"type": "Feature", "id": "670", "geometry": {"type": "Point", "coordinates": [11.626642, 44.841842]}, "properties": {"id": 538.0, "nome": null, "city": "Ferrara"}}, {"type": "Feature", "id": "671", "geometry": {"type": "Point", "coordinates": [11.679748, 44.813489]}, "properties": {"id": 248.0, "nome": null, "city": "Ferrara"}}, {"type": "Feature", "id": "672", "geometry": {"type": "Point", "coordinates": [11.611264, 44.885265]}, "properties": {"id": 737.0, "nome": null, "city": "Ferrara"}}, {"type": "Feature", "id": "673", "geometry": {"type": "Point", "coordinates": [11.603609, 44.817177]}, "properties": {"id": 9002.0, "nome": null, "city": "Ferrara"}}, {"type": "Feature", "id": "674", "geometry": {"type": "Point", "coordinates": [11.649625, 44.822778]}, "properties": {"id": 876.0, "nome": null, "city": "Ferrara"}}, {"type": "Feature", "id": "675", "geometry": {"type": "Point", "coordinates": [11.648927, 44.82221]}, "properties": {"id": 875.0, "nome": null, "city": "Ferrara"}}, {"type": "Feature", "id": "677", "geometry": {"type": "Point", "coordinates": [11.625299, 44.842006]}, "properties": {"id": 537.0, "nome": null, "city": "Ferrara"}}, {"type": "Feature", "id": "678", "geometry": {"type": "Point", "coordinates": [11.648338, 44.82155]}, "properties": {"id": 872.0, "nome": null, "city": "Ferrara"}}, {"type": "Feature", "id": "679", "geometry": {"type": "Point", "coordinates": [11.648811, 44.82145]}, "properties": {"id": 873.0, "nome": null, "city": "Ferrara"}}, {"type": "Feature", "id": "680", "geometry": {"type": "Point", "coordinates": [11.604876, 44.821062]}, "properties": {"id": 1217.0, "nome": "via Bologna lato ovest", "city": "Ferrara"}}, {"type": "Feature", "id": "681", "geometry": {"type": "Point", "coordinates": [11.626193, 44.850234]}, "properties": {"id": 817.0, "nome": "Parco Urbano lato parallello a via Bacchelli", "city": "Ferrara"}}, {"type": "Feature", "id": "682", "geometry": {"type": "Point", "coordinates": [11.621449, 44.825606]}, "properties": {"id": 17.0, "nome": "via Volano", "city": "Ferrara"}}, {"type": "Feature", "id": "683", "geometry": {"type": "Point", "coordinates": [11.636389, 44.820922]}, "properties": {"id": 608.0, "nome": null, "city": "Ferrara"}}, {"type": "Feature", "id": "684", "geometry": {"type": "Point", "coordinates": [11.6605, 44.826822]}, "properties": {"id": 583.0, "nome": null, "city": "Ferrara"}}, {"type": "Feature", "id": "685", "geometry": {"type": "Point", "coordinates": [11.596722, 44.823595]}, "properties": {"id": 1101.0, "nome": null, "city": "Ferrara"}}, {"type": "Feature", "id": "687", "geometry": {"type": "Point", "coordinates": [11.60272, 44.827793]}, "properties": {"id": 1305.0, "nome": null, "city": "Ferrara"}}, {"type": "Feature", "id": "688", "geometry": {"type": "Point", "coordinates": [11.599997, 44.828503]}, "properties": {"id": 683.0, "nome": null, "city": "Ferrara"}}, {"type": "Feature", "id": "689", "geometry": {"type": "Point", "coordinates": [11.618426, 44.825289]}, "properties": {"id": 895.0, "nome": null, "city": "Ferrara"}}, {"type": "Feature", "id": "690", "geometry": {"type": "Point", "coordinates": [11.60703, 44.84531]}, "properties": {"id": 1360.0, "nome": "viale Po", "city": "Ferrara"}}, {"type": "Feature", "id": "691", "geometry": {"type": "Point", "coordinates": [11.605429, 44.834586]}, "properties": {"id": 1297.0, "nome": null, "city": "Ferrara"}}, {"type": "Feature", "id": "693", "geometry": {"type": "Point", "coordinates": [11.638631, 44.847868]}, "properties": {"id": 498.0, "nome": null, "city": "Ferrara"}}, {"type": "Feature", "id": "695", "geometry": {"type": "Point", "coordinates": [11.581938, 44.846985]}, "properties": {"id": 1294.0, "nome": "Pista ciclabile urbana", "city": "Ferrara"}}, {"type": "Feature", "id": "696", "geometry": {"type": "Point", "coordinates": [11.582236, 44.848904]}, "properties": {"id": 868.0, "nome": null, "city": "Ferrara"}}, {"type": "Feature", "id": "699", "geometry": {"type": "Point", "coordinates": [11.548208, 44.848684]}, "properties": {"id": 853.0, "nome": null, "city": "Ferrara"}}, {"type": "Feature", "id": "702", "geometry": {"type": "Point", "coordinates": [11.649742, 44.829051]}, "properties": {"id": 787.0, "nome": "via Mari", "city": "Ferrara"}}, {"type": "Feature", "id": "703", "geometry": {"type": "Point", "coordinates": [11.628134, 44.822426]}, "properties": {"id": 1397.0, "nome": null, "city": "Ferrara"}}, {"type": "Feature", "id": "704", "geometry": {"type": "Point", "coordinates": [11.604859, 44.827517]}, "properties": {"id": 729.0, "nome": null, "city": "Ferrara"}}, {"type": "Feature", "id": "706", "geometry": {"type": "Point", "coordinates": [11.612543, 44.847822]}, "properties": {"id": 1326.0, "nome": null, "city": "Ferrara"}}, {"type": "Feature", "id": "708", "geometry": {"type": "Point", "coordinates": [11.619507, 44.854215]}, "properties": {"id": 835.0, "nome": "Parco Urbano - via Azzo Novello", "city": "Ferrara"}}, {"type": "Feature", "id": "709", "geometry": {"type": "Point", "coordinates": [11.62195, 44.856487]}, "properties": {"id": 258.0, "nome": null, "city": "Ferrara"}}, {"type": "Feature", "id": "710", "geometry": {"type": "Point", "coordinates": [11.621549, 44.854421]}, "properties": {"id": 952.0, "nome": "Parco Urbano collegamento via Canapa", "city": "Ferrara"}}, {"type": "Feature", "id": "711", "geometry": {"type": "Point", "coordinates": [11.610624, 44.850123]}, "properties": {"id": 595.0, "nome": null, "city": "Ferrara"}}, {"type": "Feature", "id": "712", "geometry": {"type": "Point", "coordinates": [11.657991, 44.807431]}, "properties": {"id": 1401.0, "nome": null, "city": "Ferrara"}}, {"type": "Feature", "id": "713", "geometry": {"type": "Point", "coordinates": [11.610585, 44.850968]}, "properties": {"id": 845.0, "nome": null, "city": "Ferrara"}}, {"type": "Feature", "id": "714", "geometry": {"type": "Point", "coordinates": [11.611737, 44.849732]}, "properties": {"id": 800.0, "nome": null, "city": "Ferrara"}}, {"type": "Feature", "id": "715", "geometry": {"type": "Point", "coordinates": [11.604905, 44.872626]}, "properties": {"id": 642.0, "nome": "Centro Diamante - via del Baiocco", "city": "Ferrara"}}, {"type": "Feature", "id": "716", "geometry": {"type": "Point", "coordinates": [11.667614, 44.83857]}, "properties": {"id": 992.0, "nome": null, "city": "Ferrara"}}, {"type": "Feature", "id": "717", "geometry": {"type": "Point", "coordinates": [11.635461, 44.820523]}, "properties": {"id": 604.0, "nome": null, "city": "Ferrara"}}, {"type": "Feature", "id": "718", "geometry": {"type": "Point", "coordinates": [11.633174, 44.84412]}, "properties": {"id": 427.0, "nome": "via degli Angeli", "city": "Ferrara"}}, {"type": "Feature", "id": "719", "geometry": {"type": "Point", "coordinates": [11.621424, 44.825414]}, "properties": {"id": 333.0, "nome": "via Volano attraversamento", "city": "Ferrara"}}, {"type": "Feature", "id": "720", "geometry": {"type": "Point", "coordinates": [11.633298, 44.848913]}, "properties": {"id": 902.0, "nome": "Sottomura via Gramicia", "city": "Ferrara"}}, {"type": "Feature", "id": "721", "geometry": {"type": "Point", "coordinates": [11.629223, 44.823731]}, "properties": {"id": 1055.0, "nome": null, "city": "Ferrara"}}, {"type": "Feature", "id": "724", "geometry": {"type": "Point", "coordinates": [11.566998, 44.854228]}, "properties": {"id": 747.0, "nome": "Burana", "city": "Ferrara"}}, {"type": "Feature", "id": "725", "geometry": {"type": "Point", "coordinates": [11.550082, 44.855022]}, "properties": {"id": 196.0, "nome": null, "city": "Ferrara"}}, {"type": "Feature", "id": "726", "geometry": {"type": "Point", "coordinates": [11.570899, 44.848192]}, "properties": {"id": 1363.0, "nome": "via Modena", "city": "Ferrara"}}, {"type": "Feature", "id": "727", "geometry": {"type": "Point", "coordinates": [11.646889, 44.814657]}, "properties": {"id": 345.0, "nome": "via San Bartolo", "city": "Ferrara"}}, {"type": "Feature", "id": "728", "geometry": {"type": "Point", "coordinates": [11.65613, 44.850874]}, "properties": {"id": 1277.0, "nome": null, "city": "Ferrara"}}, {"type": "Feature", "id": "729", "geometry": {"type": "Point", "coordinates": [11.638707, 44.820429]}, "properties": {"id": 1270.0, "nome": null, "city": "Ferrara"}}, {"type": "Feature", "id": "730", "geometry": {"type": "Point", "coordinates": [11.629424, 44.824254]}, "properties": {"id": 1187.0, "nome": "via Marco Polo", "city": "Ferrara"}}, {"type": "Feature", "id": "732", "geometry": {"type": "Point", "coordinates": [11.634554, 44.868984]}, "properties": {"id": 125.0, "nome": null, "city": "Ferrara"}}, {"type": "Feature", "id": "733", "geometry": {"type": "Point", "coordinates": [11.632737, 44.81986]}, "properties": {"id": 550.0, "nome": null, "city": "Ferrara"}}, {"type": "Feature", "id": "737", "geometry": {"type": "Point", "coordinates": [11.593066, 44.805028]}, "properties": {"id": 146.0, "nome": null, "city": "Ferrara"}}, {"type": "Feature", "id": "738", "geometry": {"type": "Point", "coordinates": [11.661518, 44.824732]}, "properties": {"id": 176.0, "nome": null, "city": "Ferrara"}}, {"type": "Feature", "id": "739", "geometry": {"type": "Point", "coordinates": [11.616099, 44.831566]}, "properties": {"id": 352.0, "nome": "via Bologna da Travaglio a Foro Boario", "city": "Ferrara"}}, {"type": "Feature", "id": "740", "geometry": {"type": "Point", "coordinates": [11.549294, 44.848272]}, "properties": {"id": 302.0, "nome": "via Giovanni Testa", "city": "Ferrara"}}, {"type": "Feature", "id": "741", "geometry": {"type": "Point", "coordinates": [11.641859, 44.835497]}, "properties": {"id": 179.0, "nome": null, "city": "Ferrara"}}, {"type": "Feature", "id": "742", "geometry": {"type": "Point", "coordinates": [11.54754, 44.841617]}, "properties": {"id": 1192.0, "nome": "via Ladino", "city": "Ferrara"}}, {"type": "Feature", "id": "743", "geometry": {"type": "Point", "coordinates": [11.628627, 44.820904]}, "properties": {"id": 309.0, "nome": null, "city": "Ferrara"}}, {"type": "Feature", "id": "745", "geometry": {"type": "Point", "coordinates": [11.610258, 44.83145]}, "properties": {"id": 530.0, "nome": null, "city": "Ferrara"}}, {"type": "Feature", "id": "746", "geometry": {"type": "Point", "coordinates": [11.576064, 44.751677]}, "properties": {"id": 1271.0, "nome": null, "city": "Ferrara"}}, {"type": "Feature", "id": "748", "geometry": {"type": "Point", "coordinates": [11.649153, 44.827929]}, "properties": {"id": 923.0, "nome": "via Mari", "city": "Ferrara"}}, {"type": "Feature", "id": "749", "geometry": {"type": "Point", "coordinates": [11.625592, 44.818384]}, "properties": {"id": 162.0, "nome": null, "city": "Ferrara"}}, {"type": "Feature", "id": "750", "geometry": {"type": "Point", "coordinates": [11.60129, 44.823161]}, "properties": {"id": 206.0, "nome": null, "city": "Ferrara"}}, {"type": "Feature", "id": "751", "geometry": {"type": "Point", "coordinates": [11.644743, 44.866938]}, "properties": {"id": 124.0, "nome": null, "city": "Ferrara"}}, {"type": "Feature", "id": "752", "geometry": {"type": "Point", "coordinates": [11.611592, 44.832665]}, "properties": {"id": 1264.0, "nome": null, "city": "Ferrara"}}, {"type": "Feature", "id": "753", "geometry": {"type": "Point", "coordinates": [11.569176, 44.853721]}, "properties": {"id": 620.0, "nome": "Burana", "city": "Ferrara"}}, {"type": "Feature", "id": "754", "geometry": {"type": "Point", "coordinates": [11.605426, 44.886366]}, "properties": {"id": 1255.0, "nome": null, "city": "Ferrara"}}, {"type": "Feature", "id": "755", "geometry": {"type": "Point", "coordinates": [11.621876, 44.827847]}, "properties": {"id": 293.0, "nome": "sottomura Quartieri", "city": "Ferrara"}}, {"type": "Feature", "id": "756", "geometry": {"type": "Point", "coordinates": [11.571735, 44.853493]}, "properties": {"id": 618.0, "nome": "Burana", "city": "Ferrara"}}, {"type": "Feature", "id": "757", "geometry": {"type": "Point", "coordinates": [11.574499, 44.853143]}, "properties": {"id": 617.0, "nome": "Burana", "city": "Ferrara"}}, {"type": "Feature", "id": "758", "geometry": {"type": "Point", "coordinates": [11.653173, 44.892099]}, "properties": {"id": 588.0, "nome": "via Calzolai dal collegamento con via Gramicia a F", "city": "Ferrara"}}, {"type": "Feature", "id": "759", "geometry": {"type": "Point", "coordinates": [11.58305, 44.804231]}, "properties": {"id": 478.0, "nome": null, "city": "Ferrara"}}, {"type": "Feature", "id": "760", "geometry": {"type": "Point", "coordinates": [11.624382, 44.819553]}, "properties": {"id": 1159.0, "nome": null, "city": "Ferrara"}}, {"type": "Feature", "id": "761", "geometry": {"type": "Point", "coordinates": [11.674598, 44.815349]}, "properties": {"id": 1266.0, "nome": null, "city": "Ferrara"}}, {"type": "Feature", "id": "762", "geometry": {"type": "Point", "coordinates": [11.639919, 44.841668]}, "properties": {"id": 191.0, "nome": null, "city": "Ferrara"}}, {"type": "Feature", "id": "763", "geometry": {"type": "Point", "coordinates": [11.595749, 44.847262]}, "properties": {"id": 108.0, "nome": null, "city": "Ferrara"}}, {"type": "Feature", "id": "764", "geometry": {"type": "Point", "coordinates": [11.749699, 44.877051]}, "properties": {"id": 1293.0, "nome": "Pista ciclabile urbana", "city": "Ferrara"}}, {"type": "Feature", "id": "765", "geometry": {"type": "Point", "coordinates": [11.638901, 44.848754]}, "properties": {"id": 82.0, "nome": "via Guido Carli", "city": "Ferrara"}}, {"type": "Feature", "id": "766", "geometry": {"type": "Point", "coordinates": [11.651864, 44.901361]}, "properties": {"id": 1284.0, "nome": null, "city": "Ferrara"}}, {"type": "Feature", "id": "767", "geometry": {"type": "Point", "coordinates": [11.566318, 44.853882]}, "properties": {"id": 616.0, "nome": "Burana", "city": "Ferrara"}}, {"type": "Feature", "id": "769", "geometry": {"type": "Point", "coordinates": [11.579608, 44.860432]}, "properties": {"id": 564.0, "nome": null, "city": "Ferrara"}}, {"type": "Feature", "id": "770", "geometry": {"type": "Point", "coordinates": [11.6591, 44.825129]}, "properties": {"id": 177.0, "nome": null, "city": "Ferrara"}}, {"type": "Feature", "id": "771", "geometry": {"type": "Point", "coordinates": [11.634777, 44.831333]}, "properties": {"id": 454.0, "nome": "P.le Medaglie d'Oro- Via Caldirolo", "city": "Ferrara"}}, {"type": "Feature", "id": "772", "geometry": {"type": "Point", "coordinates": [11.624266, 44.849036]}, "properties": {"id": 584.0, "nome": null, "city": "Ferrara"}}, {"type": "Feature", "id": "773", "geometry": {"type": "Point", "coordinates": [11.650391, 44.846314]}, "properties": {"id": 79.0, "nome": "via Guido Carli", "city": "Ferrara"}}, {"type": "Feature", "id": "774", "geometry": {"type": "Point", "coordinates": [11.605048, 44.846722]}, "properties": {"id": 135.0, "nome": null, "city": "Ferrara"}}, {"type": "Feature", "id": "775", "geometry": {"type": "Point", "coordinates": [11.615547, 44.840284]}, "properties": {"id": 1197.0, "nome": "controviale Cavour lato nord", "city": "Ferrara"}}, {"type": "Feature", "id": "776", "geometry": {"type": "Point", "coordinates": [11.69857, 44.91586]}, "properties": {"id": 1261.0, "nome": null, "city": "Ferrara"}}, {"type": "Feature", "id": "777", "geometry": {"type": "Point", "coordinates": [11.547744, 44.850626]}, "properties": {"id": 566.0, "nome": null, "city": "Ferrara"}}, {"type": "Feature", "id": "779", "geometry": {"type": "Point", "coordinates": [11.62831, 44.821203]}, "properties": {"id": 175.0, "nome": null, "city": "Ferrara"}}, {"type": "Feature", "id": "780", "geometry": {"type": "Point", "coordinates": [11.628111, 44.822955]}, "properties": {"id": 139.0, "nome": "via Ravenna", "city": "Ferrara"}}, {"type": "Feature", "id": "781", "geometry": {"type": "Point", "coordinates": [11.60843, 44.850424]}, "properties": {"id": 130.0, "nome": null, "city": "Ferrara"}}, {"type": "Feature", "id": "782", "geometry": {"type": "Point", "coordinates": [11.551484, 44.858001]}, "properties": {"id": 749.0, "nome": null, "city": "Ferrara"}}, {"type": "Feature", "id": "783", "geometry": {"type": "Point", "coordinates": [11.627597, 44.834535]}, "properties": {"id": 542.0, "nome": null, "city": "Ferrara"}}, {"type": "Feature", "id": "785", "geometry": {"type": "Point", "coordinates": [11.628274, 44.822916]}, "properties": {"id": 140.0, "nome": "via Ravenna", "city": "Ferrara"}}, {"type": "Feature", "id": "786", "geometry": {"type": "Point", "coordinates": [11.629755, 44.845348]}, "properties": {"id": 54.0, "nome": "via Vigne", "city": "Ferrara"}}, {"type": "Feature", "id": "787", "geometry": {"type": "Point", "coordinates": [11.634213, 44.824824]}, "properties": {"id": 281.0, "nome": null, "city": "Ferrara"}}, {"type": "Feature", "id": "788", "geometry": {"type": "Point", "coordinates": [11.641869, 44.839854]}, "properties": {"id": 1162.0, "nome": null, "city": "Ferrara"}}, {"type": "Feature", "id": "789", "geometry": {"type": "Point", "coordinates": [11.596855, 44.824618]}, "properties": {"id": 203.0, "nome": null, "city": "Ferrara"}}, {"type": "Feature", "id": "792", "geometry": {"type": "Point", "coordinates": [11.650126, 44.829354]}, "properties": {"id": 777.0, "nome": "via Mari", "city": "Ferrara"}}, {"type": "Feature", "id": "793", "geometry": {"type": "Point", "coordinates": [11.628454, 44.824019]}, "properties": {"id": 137.0, "nome": "via Ravenna", "city": "Ferrara"}}, {"type": "Feature", "id": "794", "geometry": {"type": "Point", "coordinates": [11.633964, 44.84093]}, "properties": {"id": 540.0, "nome": null, "city": "Ferrara"}}, {"type": "Feature", "id": "795", "geometry": {"type": "Point", "coordinates": [11.632978, 44.819655]}, "properties": {"id": 551.0, "nome": null, "city": "Ferrara"}}, {"type": "Feature", "id": "797", "geometry": {"type": "Point", "coordinates": [11.61907, 44.825104]}, "properties": {"id": 1248.0, "nome": "via G. Fabbri da via Melograno a via Goretti", "city": "Ferrara"}}, {"type": "Feature", "id": "798", "geometry": {"type": "Point", "coordinates": [11.576733, 44.85538]}, "properties": {"id": 1378.0, "nome": null, "city": "Ferrara"}}, {"type": "Feature", "id": "799", "geometry": {"type": "Point", "coordinates": [11.632178, 44.821065]}, "properties": {"id": 549.0, "nome": null, "city": "Ferrara"}}, {"type": "Feature", "id": "800", "geometry": {"type": "Point", "coordinates": [11.601231, 44.828553]}, "properties": {"id": 689.0, "nome": null, "city": "Ferrara"}}, {"type": "Feature", "id": "801", "geometry": {"type": "Point", "coordinates": [11.628362, 44.822676]}, "properties": {"id": 142.0, "nome": "via Ravenna", "city": "Ferrara"}}, {"type": "Feature", "id": "802", "geometry": {"type": "Point", "coordinates": [11.626795, 44.818502]}, "properties": {"id": 163.0, "nome": null, "city": "Ferrara"}}, {"type": "Feature", "id": "803", "geometry": {"type": "Point", "coordinates": [11.628833, 44.783095]}, "properties": {"id": 598.0, "nome": null, "city": "Ferrara"}}, {"type": "Feature", "id": "804", "geometry": {"type": "Point", "coordinates": [11.650993, 44.827285]}, "properties": {"id": 236.0, "nome": null, "city": "Ferrara"}}, {"type": "Feature", "id": "805", "geometry": {"type": "Point", "coordinates": [11.616567, 44.854182]}, "properties": {"id": 229.0, "nome": null, "city": "Ferrara"}}, {"type": "Feature", "id": "806", "geometry": {"type": "Point", "coordinates": [11.679369, 44.812811]}, "properties": {"id": 247.0, "nome": null, "city": "Ferrara"}}, {"type": "Feature", "id": "807", "geometry": {"type": "Point", "coordinates": [11.567777, 44.854016]}, "properties": {"id": 611.0, "nome": "Burana", "city": "Ferrara"}}, {"type": "Feature", "id": "809", "geometry": {"type": "Point", "coordinates": [11.640214, 44.840336]}, "properties": {"id": 192.0, "nome": null, "city": "Ferrara"}}, {"type": "Feature", "id": "810", "geometry": {"type": "Point", "coordinates": [11.616667, 44.822349]}, "properties": {"id": 209.0, "nome": null, "city": "Ferrara"}}, {"type": "Feature", "id": "811", "geometry": {"type": "Point", "coordinates": [11.6158, 44.820311]}, "properties": {"id": 172.0, "nome": null, "city": "Ferrara"}}, {"type": "Feature", "id": "812", "geometry": {"type": "Point", "coordinates": [11.614849, 44.853441]}, "properties": {"id": 438.0, "nome": "via Canapa lato ovest", "city": "Ferrara"}}, {"type": "Feature", "id": "813", "geometry": {"type": "Point", "coordinates": [11.612428, 44.88654]}, "properties": {"id": 517.0, "nome": null, "city": "Ferrara"}}, {"type": "Feature", "id": "814", "geometry": {"type": "Point", "coordinates": [11.678088, 44.810628]}, "properties": {"id": 523.0, "nome": null, "city": "Ferrara"}}, {"type": "Feature", "id": "815", "geometry": {"type": "Point", "coordinates": [11.583772, 44.846534]}, "properties": {"id": 969.0, "nome": null, "city": "Ferrara"}}, {"type": "Feature", "id": "816", "geometry": {"type": "Point", "coordinates": [11.616709, 44.821002]}, "properties": {"id": 171.0, "nome": null, "city": "Ferrara"}}, {"type": "Feature", "id": "817", "geometry": {"type": "Point", "coordinates": [11.660992, 44.813296]}, "properties": {"id": 592.0, "nome": "via del Parco", "city": "Ferrara"}}, {"type": "Feature", "id": "818", "geometry": {"type": "Point", "coordinates": [11.630006, 44.823974]}, "properties": {"id": 279.0, "nome": null, "city": "Ferrara"}}, {"type": "Feature", "id": "819", "geometry": {"type": "Point", "coordinates": [11.619466, 44.854248]}, "properties": {"id": 231.0, "nome": null, "city": "Ferrara"}}, {"type": "Feature", "id": "822", "geometry": {"type": "Point", "coordinates": [11.628516, 44.818283]}, "properties": {"id": 213.0, "nome": "via Ravenna", "city": "Ferrara"}}, {"type": "Feature", "id": "823", "geometry": {"type": "Point", "coordinates": [11.589429, 44.849084]}, "properties": {"id": 1268.0, "nome": null, "city": "Ferrara"}}, {"type": "Feature", "id": "824", "geometry": {"type": "Point", "coordinates": [11.606375, 44.853048]}, "properties": {"id": 664.0, "nome": null, "city": "Ferrara"}}, {"type": "Feature", "id": "826", "geometry": {"type": "Point", "coordinates": [11.650621, 44.84861]}, "properties": {"id": 547.0, "nome": null, "city": "Ferrara"}}, {"type": "Feature", "id": "827", "geometry": {"type": "Point", "coordinates": [11.620114, 44.859677]}, "properties": {"id": 1185.0, "nome": null, "city": "Ferrara"}}, {"type": "Feature", "id": "828", "geometry": {"type": "Point", "coordinates": [11.567142, 44.848914]}, "properties": {"id": 1361.0, "nome": "via Modena", "city": "Ferrara"}}, {"type": "Feature", "id": "829", "geometry": {"type": "Point", "coordinates": [11.630422, 44.857102]}, "properties": {"id": 1241.0, "nome": "via Gramicia", "city": "Ferrara"}}, {"type": "Feature", "id": "830", "geometry": {"type": "Point", "coordinates": [11.642494, 44.829236]}, "properties": {"id": 244.0, "nome": "via Pontegradella", "city": "Ferrara"}}, {"type": "Feature", "id": "831", "geometry": {"type": "Point", "coordinates": [11.604551, 44.836536]}, "properties": {"id": 1179.0, "nome": "via Darsena", "city": "Ferrara"}}, {"type": "Feature", "id": "832", "geometry": {"type": "Point", "coordinates": [11.607795, 44.848412]}, "properties": {"id": 131.0, "nome": null, "city": "Ferrara"}}, {"type": "Feature", "id": "833", "geometry": {"type": "Point", "coordinates": [11.668543, 44.815721]}, "properties": {"id": 529.0, "nome": null, "city": "Ferrara"}}, {"type": "Feature", "id": "834", "geometry": {"type": "Point", "coordinates": [11.602247, 44.84788]}, "properties": {"id": 1111.0, "nome": "collegamento viale Po via Azzi", "city": "Ferrara"}}, {"type": "Feature", "id": "835", "geometry": {"type": "Point", "coordinates": [11.650253, 44.829871]}, "properties": {"id": 775.0, "nome": "via Mari", "city": "Ferrara"}}, {"type": "Feature", "id": "838", "geometry": {"type": "Point", "coordinates": [11.628619, 44.788232]}, "properties": {"id": 1275.0, "nome": null, "city": "Ferrara"}}, {"type": "Feature", "id": "839", "geometry": {"type": "Point", "coordinates": [11.607062, 44.856917]}, "properties": {"id": 113.0, "nome": null, "city": "Ferrara"}}, {"type": "Feature", "id": "840", "geometry": {"type": "Point", "coordinates": [11.660994, 44.905655]}, "properties": {"id": 513.0, "nome": null, "city": "Ferrara"}}, {"type": "Feature", "id": "841", "geometry": {"type": "Point", "coordinates": [11.582884, 44.775171]}, "properties": {"id": 237.0, "nome": "via Buttifredo", "city": "Ferrara"}}, {"type": "Feature", "id": "842", "geometry": {"type": "Point", "coordinates": [11.646445, 44.817513]}, "properties": {"id": 342.0, "nome": "via Miles Davis", "city": "Ferrara"}}, {"type": "Feature", "id": "843", "geometry": {"type": "Point", "coordinates": [11.690228, 44.913572]}, "properties": {"id": 1250.0, "nome": null, "city": "Ferrara"}}, {"type": "Feature", "id": "844", "geometry": {"type": "Point", "coordinates": [11.623211, 44.820819]}, "properties": {"id": 339.0, "nome": "collegamento da via Fabbri alla Rivana", "city": "Ferrara"}}, {"type": "Feature", "id": "845", "geometry": {"type": "Point", "coordinates": [11.670037, 44.816934]}, "properties": {"id": 525.0, "nome": null, "city": "Ferrara"}}, {"type": "Feature", "id": "846", "geometry": {"type": "Point", "coordinates": [11.609688, 44.82013]}, "properties": {"id": 167.0, "nome": null, "city": "Ferrara"}}, {"type": "Feature", "id": "847", "geometry": {"type": "Point", "coordinates": [11.673303, 44.811032]}, "properties": {"id": 219.0, "nome": null, "city": "Ferrara"}}, {"type": "Feature", "id": "848", "geometry": {"type": "Point", "coordinates": [11.591068, 44.809613]}, "properties": {"id": 1252.0, "nome": "via Bologna lato est", "city": "Ferrara"}}, {"type": "Feature", "id": "849", "geometry": {"type": "Point", "coordinates": [11.623381, 44.820742]}, "properties": {"id": 155.0, "nome": null, "city": "Ferrara"}}, {"type": "Feature", "id": "850", "geometry": {"type": "Point", "coordinates": [11.575289, 44.847596]}, "properties": {"id": 1366.0, "nome": "via Modena", "city": "Ferrara"}}, {"type": "Feature", "id": "851", "geometry": {"type": "Point", "coordinates": [11.614074, 44.848523]}, "properties": {"id": 803.0, "nome": "Sottomura via Bacchelli da via Azzo Novello a via", "city": "Ferrara"}}, {"type": "Feature", "id": "852", "geometry": {"type": "Point", "coordinates": [11.596159, 44.824188]}, "properties": {"id": 695.0, "nome": null, "city": "Ferrara"}}, {"type": "Feature", "id": "853", "geometry": {"type": "Point", "coordinates": [11.612245, 44.869258]}, "properties": {"id": 128.0, "nome": null, "city": "Ferrara"}}, {"type": "Feature", "id": "854", "geometry": {"type": "Point", "coordinates": [11.627049, 44.849021]}, "properties": {"id": 431.0, "nome": "sorpamura Orlando Furioso", "city": "Ferrara"}}, {"type": "Feature", "id": "856", "geometry": {"type": "Point", "coordinates": [11.656468, 44.816251]}, "properties": {"id": 216.0, "nome": null, "city": "Ferrara"}}, {"type": "Feature", "id": "857", "geometry": {"type": "Point", "coordinates": [11.650409, 44.890155]}, "properties": {"id": 1283.0, "nome": "via Calzolai dal collegamento con via Gramicia a F", "city": "Ferrara"}}, {"type": "Feature", "id": "858", "geometry": {"type": "Point", "coordinates": [11.673931, 44.810844]}, "properties": {"id": 545.0, "nome": null, "city": "Ferrara"}}, {"type": "Feature", "id": "859", "geometry": {"type": "Point", "coordinates": [11.623327, 44.820769]}, "properties": {"id": 473.0, "nome": "via G. Fabbri", "city": "Ferrara"}}, {"type": "Feature", "id": "861", "geometry": {"type": "Point", "coordinates": [11.612595, 44.8848]}, "properties": {"id": 739.0, "nome": null, "city": "Ferrara"}}, {"type": "Feature", "id": "862", "geometry": {"type": "Point", "coordinates": [11.62246, 44.818396]}, "properties": {"id": 160.0, "nome": null, "city": "Ferrara"}}, {"type": "Feature", "id": "863", "geometry": {"type": "Point", "coordinates": [11.589538, 44.839937]}, "properties": {"id": 1233.0, "nome": null, "city": "Ferrara"}}, {"type": "Feature", "id": "864", "geometry": {"type": "Point", "coordinates": [11.620799, 44.871844]}, "properties": {"id": 126.0, "nome": null, "city": "Ferrara"}}, {"type": "Feature", "id": "865", "geometry": {"type": "Point", "coordinates": [11.622014, 44.826272]}, "properties": {"id": 288.0, "nome": "sottomura Porta San Pietro", "city": "Ferrara"}}, {"type": "Feature", "id": "866", "geometry": {"type": "Point", "coordinates": [11.709552, 44.863616]}, "properties": {"id": 1374.0, "nome": null, "city": "Ferrara"}}, {"type": "Feature", "id": "867", "geometry": {"type": "Point", "coordinates": [11.629041, 44.821576]}, "properties": {"id": 308.0, "nome": null, "city": "Ferrara"}}, {"type": "Feature", "id": "868", "geometry": {"type": "Point", "coordinates": [11.637436, 44.874308]}, "properties": {"id": 1120.0, "nome": null, "city": "Ferrara"}}, {"type": "Feature", "id": "869", "geometry": {"type": "Point", "coordinates": [11.551157, 44.861191]}, "properties": {"id": 194.0, "nome": null, "city": "Ferrara"}}, {"type": "Feature", "id": "870", "geometry": {"type": "Point", "coordinates": [11.604012, 44.840004]}, "properties": {"id": 1224.0, "nome": "via Ticchioni", "city": "Ferrara"}}, {"type": "Feature", "id": "871", "geometry": {"type": "Point", "coordinates": [11.618731, 44.820532]}, "properties": {"id": 210.0, "nome": null, "city": "Ferrara"}}, {"type": "Feature", "id": "873", "geometry": {"type": "Point", "coordinates": [11.696326, 44.797985]}, "properties": {"id": 1193.0, "nome": "Ospedale Cona", "city": "Ferrara"}}, {"type": "Feature", "id": "874", "geometry": {"type": "Point", "coordinates": [11.661663, 44.826552]}, "properties": {"id": 1269.0, "nome": null, "city": "Ferrara"}}, {"type": "Feature", "id": "875", "geometry": {"type": "Point", "coordinates": [11.60085, 44.821966]}, "properties": {"id": 207.0, "nome": null, "city": "Ferrara"}}, {"type": "Feature", "id": "877", "geometry": {"type": "Point", "coordinates": [11.654338, 44.835256]}, "properties": {"id": 1356.0, "nome": "via Pontegradella", "city": "Ferrara"}}, {"type": "Feature", "id": "878", "geometry": {"type": "Point", "coordinates": [11.606313, 44.853008]}, "properties": {"id": 115.0, "nome": null, "city": "Ferrara"}}, {"type": "Feature", "id": "879", "geometry": {"type": "Point", "coordinates": [11.621532, 44.842473]}, "properties": {"id": 485.0, "nome": null, "city": "Ferrara"}}, {"type": "Feature", "id": "880", "geometry": {"type": "Point", "coordinates": [11.577553, 44.847334]}, "properties": {"id": 410.0, "nome": "via Modena", "city": "Ferrara"}}, {"type": "Feature", "id": "881", "geometry": {"type": "Point", "coordinates": [11.604796, 44.842385]}, "properties": {"id": 1115.0, "nome": "piazzale Castellina", "city": "Ferrara"}}, {"type": "Feature", "id": "882", "geometry": {"type": "Point", "coordinates": [11.672734, 44.815909]}, "properties": {"id": 1263.0, "nome": null, "city": "Ferrara"}}, {"type": "Feature", "id": "884", "geometry": {"type": "Point", "coordinates": [11.570256, 44.808042]}, "properties": {"id": 1339.0, "nome": null, "city": "Ferrara"}}, {"type": "Feature", "id": "885", "geometry": {"type": "Point", "coordinates": [11.612878, 44.885334]}, "properties": {"id": 123.0, "nome": "via Nuova", "city": "Ferrara"}}, {"type": "Feature", "id": "886", "geometry": {"type": "Point", "coordinates": [11.607532, 44.86302]}, "properties": {"id": 118.0, "nome": "via Battara", "city": "Ferrara"}}, {"type": "Feature", "id": "887", "geometry": {"type": "Point", "coordinates": [11.651907, 44.814937]}, "properties": {"id": 1210.0, "nome": "via del Parco", "city": "Ferrara"}}, {"type": "Feature", "id": "888", "geometry": {"type": "Point", "coordinates": [11.549833, 44.849804]}, "properties": {"id": 1084.0, "nome": null, "city": "Ferrara"}}, {"type": "Feature", "id": "889", "geometry": {"type": "Point", "coordinates": [11.481824, 44.934218]}, "properties": {"id": 1254.0, "nome": null, "city": "Ferrara"}}, {"type": "Feature", "id": "890", "geometry": {"type": "Point", "coordinates": [11.606774, 44.835473]}, "properties": {"id": 1222.0, "nome": "via Darsena Foro Boario", "city": "Ferrara"}}, {"type": "Feature", "id": "891", "geometry": {"type": "Point", "coordinates": [11.627122, 44.842577]}, "properties": {"id": 425.0, "nome": "via delle Erbe", "city": "Ferrara"}}, {"type": "Feature", "id": "892", "geometry": {"type": "Point", "coordinates": [11.627125, 44.824856]}, "properties": {"id": 15.0, "nome": "sopramura via Baluardi", "city": "Ferrara"}}, {"type": "Feature", "id": "893", "geometry": {"type": "Point", "coordinates": [11.662157, 44.826442]}, "properties": {"id": 1171.0, "nome": null, "city": "Ferrara"}}, {"type": "Feature", "id": "895", "geometry": {"type": "Point", "coordinates": [11.618523, 44.810437]}, "properties": {"id": 148.0, "nome": null, "city": "Ferrara"}}, {"type": "Feature", "id": "896", "geometry": {"type": "Point", "coordinates": [11.66572, 44.803407]}, "properties": {"id": 1251.0, "nome": "via Ricciarelli", "city": "Ferrara"}}, {"type": "Feature", "id": "897", "geometry": {"type": "Point", "coordinates": [11.601979, 44.813434]}, "properties": {"id": 1155.0, "nome": null, "city": "Ferrara"}}, {"type": "Feature", "id": "898", "geometry": {"type": "Point", "coordinates": [11.607521, 44.845011]}, "properties": {"id": 398.0, "nome": "viale Po giardini", "city": "Ferrara"}}, {"type": "Feature", "id": "899", "geometry": {"type": "Point", "coordinates": [11.548109, 44.841979]}, "properties": {"id": 1230.0, "nome": "collegamento via Ladino via  Gorini", "city": "Ferrara"}}, {"type": "Feature", "id": "900", "geometry": {"type": "Point", "coordinates": [11.61664, 44.827784]}, "properties": {"id": 1154.0, "nome": null, "city": "Ferrara"}}, {"type": "Feature", "id": "901", "geometry": {"type": "Point", "coordinates": [11.71191, 44.923086]}, "properties": {"id": 1262.0, "nome": null, "city": "Ferrara"}}, {"type": "Feature", "id": "902", "geometry": {"type": "Point", "coordinates": [11.634712, 44.853175]}, "properties": {"id": 75.0, "nome": "Parco Urbano collegamento via Gramicia - via Calzo", "city": "Ferrara"}}, {"type": "Feature", "id": "903", "geometry": {"type": "Point", "coordinates": [11.713227, 44.804377]}, "properties": {"id": 249.0, "nome": null, "city": "Ferrara"}}, {"type": "Feature", "id": "904", "geometry": {"type": "Point", "coordinates": [11.641412, 44.828485]}, "properties": {"id": 1039.0, "nome": "via Pontegradella da via Francia a via Pomposa", "city": "Ferrara"}}, {"type": "Feature", "id": "905", "geometry": {"type": "Point", "coordinates": [11.670792, 44.828859]}, "properties": {"id": 1172.0, "nome": null, "city": "Ferrara"}}, {"type": "Feature", "id": "907", "geometry": {"type": "Point", "coordinates": [11.606481, 44.846569]}, "properties": {"id": 132.0, "nome": null, "city": "Ferrara"}}, {"type": "Feature", "id": "908", "geometry": {"type": "Point", "coordinates": [11.607984, 44.887445]}, "properties": {"id": 514.0, "nome": null, "city": "Ferrara"}}, {"type": "Feature", "id": "909", "geometry": {"type": "Point", "coordinates": [11.640893, 44.833441]}, "properties": {"id": 1034.0, "nome": null, "city": "Ferrara"}}, {"type": "Feature", "id": "910", "geometry": {"type": "Point", "coordinates": [11.611007, 44.885043]}, "properties": {"id": 121.0, "nome": "via Nuova", "city": "Ferrara"}}, {"type": "Feature", "id": "911", "geometry": {"type": "Point", "coordinates": [11.600817, 44.810483]}, "properties": {"id": 1157.0, "nome": null, "city": "Ferrara"}}, {"type": "Feature", "id": "912", "geometry": {"type": "Point", "coordinates": [11.617841, 44.819763]}, "properties": {"id": 159.0, "nome": null, "city": "Ferrara"}}, {"type": "Feature", "id": "913", "geometry": {"type": "Point", "coordinates": [11.624247, 44.82099]}, "properties": {"id": 152.0, "nome": null, "city": "Ferrara"}}, {"type": "Feature", "id": "914", "geometry": {"type": "Point", "coordinates": [11.605229, 44.800222]}, "properties": {"id": 1156.0, "nome": null, "city": "Ferrara"}}, {"type": "Feature", "id": "915", "geometry": {"type": "Point", "coordinates": [11.550168, 44.864519]}, "properties": {"id": 1163.0, "nome": null, "city": "Ferrara"}}, {"type": "Feature", "id": "916", "geometry": {"type": "Point", "coordinates": [11.647558, 44.861696]}, "properties": {"id": 982.0, "nome": null, "city": "Ferrara"}}, {"type": "Feature", "id": "917", "geometry": {"type": "Point", "coordinates": [11.595229, 44.782693]}, "properties": {"id": 1253.0, "nome": null, "city": "Ferrara"}}, {"type": "Feature", "id": "918", "geometry": {"type": "Point", "coordinates": [11.585204, 44.854144]}, "properties": {"id": 563.0, "nome": null, "city": "Ferrara"}}, {"type": "Feature", "id": "919", "geometry": {"type": "Point", "coordinates": [11.65093, 44.846152]}, "properties": {"id": 443.0, "nome": "Via Caretti: dalla rotatoria di via Copparo a via", "city": "Ferrara"}}, {"type": "Feature", "id": "921", "geometry": {"type": "Point", "coordinates": [11.598978, 44.83621]}, "properties": {"id": 937.0, "nome": "via San Giacomo", "city": "Ferrara"}}, {"type": "Feature", "id": "922", "geometry": {"type": "Point", "coordinates": [11.609011, 44.844334]}, "properties": {"id": 316.0, "nome": "viale Po", "city": "Ferrara"}}, {"type": "Feature", "id": "923", "geometry": {"type": "Point", "coordinates": [11.606513, 44.83539]}, "properties": {"id": 1221.0, "nome": "via Darsena", "city": "Ferrara"}}, {"type": "Feature", "id": "925", "geometry": {"type": "Point", "coordinates": [11.709054, 44.79908]}, "properties": {"id": 250.0, "nome": null, "city": "Ferrara"}}, {"type": "Feature", "id": "926", "geometry": {"type": "Point", "coordinates": [11.615967, 44.849693]}, "properties": {"id": 49.0, "nome": "sopramura viale Belvedere", "city": "Ferrara"}}, {"type": "Feature", "id": "929", "geometry": {"type": "Point", "coordinates": [11.646983, 44.864378]}, "properties": {"id": 626.0, "nome": "via Calzolai dal collegamento con via Gramicia a F", "city": "Ferrara"}}, {"type": "Feature", "id": "930", "geometry": {"type": "Point", "coordinates": [11.557852, 44.917739]}, "properties": {"id": 1260.0, "nome": null, "city": "Ferrara"}}, {"type": "Feature", "id": "931", "geometry": {"type": "Point", "coordinates": [11.597845, 44.8084]}, "properties": {"id": 145.0, "nome": null, "city": "Ferrara"}}, {"type": "Feature", "id": "932", "geometry": {"type": "Point", "coordinates": [11.602681, 44.811726]}, "properties": {"id": 144.0, "nome": null, "city": "Ferrara"}}, {"type": "Feature", "id": "933", "geometry": {"type": "Point", "coordinates": [11.691387, 44.802175]}, "properties": {"id": 519.0, "nome": null, "city": "Ferrara"}}, {"type": "Feature", "id": "934", "geometry": {"type": "Point", "coordinates": [11.668985, 44.813485]}, "properties": {"id": 220.0, "nome": null, "city": "Ferrara"}}, {"type": "Feature", "id": "935", "geometry": {"type": "Point", "coordinates": [11.633081, 44.831474]}, "properties": {"id": 1234.0, "nome": "V.el Alfonso d'Este", "city": "Ferrara"}}, {"type": "Feature", "id": "937", "geometry": {"type": "Point", "coordinates": [11.666399, 44.814263]}, "properties": {"id": 221.0, "nome": null, "city": "Ferrara"}}, {"type": "Feature", "id": "938", "geometry": {"type": "Point", "coordinates": [11.633189, 44.819172]}, "properties": {"id": 891.0, "nome": "via Boschetto", "city": "Ferrara"}}, {"type": "Feature", "id": "939", "geometry": {"type": "Point", "coordinates": [11.673838, 44.912488]}, "properties": {"id": 1256.0, "nome": null, "city": "Ferrara"}}, {"type": "Feature", "id": "940", "geometry": {"type": "Point", "coordinates": [11.629985, 44.811763]}, "properties": {"id": 475.0, "nome": "via G. Fabbri", "city": "Ferrara"}}, {"type": "Feature", "id": "941", "geometry": {"type": "Point", "coordinates": [11.631357, 44.848981]}, "properties": {"id": 267.0, "nome": "Sottomura via Bacchelli da via Gramicia a via Azzo", "city": "Ferrara"}}, {"type": "Feature", "id": "943", "geometry": {"type": "Point", "coordinates": [11.604638, 44.868148]}, "properties": {"id": 647.0, "nome": "Centro Diamante - via del Baiocco", "city": "Ferrara"}}, {"type": "Feature", "id": "944", "geometry": {"type": "Point", "coordinates": [11.630239, 44.782611]}, "properties": {"id": 599.0, "nome": null, "city": "Ferrara"}}, {"type": "Feature", "id": "945", "geometry": {"type": "Point", "coordinates": [11.644389, 44.735807]}, "properties": {"id": 1276.0, "nome": null, "city": "Ferrara"}}, {"type": "Feature", "id": "946", "geometry": {"type": "Point", "coordinates": [11.621672, 44.84245]}, "properties": {"id": 484.0, "nome": null, "city": "Ferrara"}}, {"type": "Feature", "id": "947", "geometry": {"type": "Point", "coordinates": [11.639613, 44.83367]}, "properties": {"id": 1158.0, "nome": null, "city": "Ferrara"}}, {"type": "Feature", "id": "948", "geometry": {"type": "Point", "coordinates": [11.616435, 44.820228]}, "properties": {"id": 158.0, "nome": null, "city": "Ferrara"}}, {"type": "Feature", "id": "949", "geometry": {"type": "Point", "coordinates": [11.65324, 44.892254]}, "properties": {"id": 589.0, "nome": null, "city": "Ferrara"}}, {"type": "Feature", "id": "950", "geometry": {"type": "Point", "coordinates": [11.594909, 44.843213]}, "properties": {"id": 109.0, "nome": null, "city": "Ferrara"}}, {"type": "Feature", "id": "951", "geometry": {"type": "Point", "coordinates": [11.609516, 44.844201]}, "properties": {"id": 317.0, "nome": "viale Po", "city": "Ferrara"}}, {"type": "Feature", "id": "952", "geometry": {"type": "Point", "coordinates": [11.549057, 44.850882]}, "properties": {"id": 567.0, "nome": null, "city": "Ferrara"}}, {"type": "Feature", "id": "953", "geometry": {"type": "Point", "coordinates": [11.607764, 44.851619]}, "properties": {"id": 129.0, "nome": null, "city": "Ferrara"}}, {"type": "Feature", "id": "956", "geometry": {"type": "Point", "coordinates": [11.649678, 44.862576]}, "properties": {"id": 973.0, "nome": null, "city": "Ferrara"}}, {"type": "Feature", "id": "959", "geometry": {"type": "Point", "coordinates": [11.6134, 44.875344]}, "properties": {"id": 127.0, "nome": null, "city": "Ferrara"}}, {"type": "Feature", "id": "960", "geometry": {"type": "Point", "coordinates": [11.581056, 44.780355]}, "properties": {"id": 1086.0, "nome": null, "city": "Ferrara"}}, {"type": "Feature", "id": "962", "geometry": {"type": "Point", "coordinates": [11.667702, 44.838338]}, "properties": {"id": 988.0, "nome": null, "city": "Ferrara"}}, {"type": "Feature", "id": "963", "geometry": {"type": "Point", "coordinates": [11.658483, 44.846833]}, "properties": {"id": 571.0, "nome": null, "city": "Ferrara"}}, {"type": "Feature", "id": "964", "geometry": {"type": "Point", "coordinates": [11.620006, 44.819109]}, "properties": {"id": 340.0, "nome": "collegamento da via Fabbri alla Rivana", "city": "Ferrara"}}, {"type": "Feature", "id": "965", "geometry": {"type": "Point", "coordinates": [11.628305, 44.822878]}, "properties": {"id": 1013.0, "nome": null, "city": "Ferrara"}}, {"type": "Feature", "id": "966", "geometry": {"type": "Point", "coordinates": [11.64977, 44.877162]}, "properties": {"id": 625.0, "nome": "via Calzolai dal collegamento con via Gramicia a F", "city": "Ferrara"}}, {"type": "Feature", "id": "968", "geometry": {"type": "Point", "coordinates": [11.609478, 44.840202]}, "properties": {"id": 1223.0, "nome": "via Cassoli", "city": "Ferrara"}}, {"type": "Feature", "id": "969", "geometry": {"type": "Point", "coordinates": [11.616187, 44.832851]}, "properties": {"id": 367.0, "nome": "via Bologna lato ovest", "city": "Ferrara"}}, {"type": "Feature", "id": "971", "geometry": {"type": "Point", "coordinates": [11.620024, 44.85378]}, "properties": {"id": 827.0, "nome": null, "city": "Ferrara"}}, {"type": "Feature", "id": "972", "geometry": {"type": "Point", "coordinates": [11.55018, 44.848509]}, "properties": {"id": 412.0, "nome": "via Ladino collegamento via Testa", "city": "Ferrara"}}, {"type": "Feature", "id": "973", "geometry": {"type": "Point", "coordinates": [11.627185, 44.865897]}, "properties": {"id": 97.0, "nome": "Parco Urbano da via Lavezzola a via Conchetta", "city": "Ferrara"}}, {"type": "Feature", "id": "975", "geometry": {"type": "Point", "coordinates": [11.620822, 44.837754]}, "properties": {"id": 489.0, "nome": null, "city": "Ferrara"}}, {"type": "Feature", "id": "976", "geometry": {"type": "Point", "coordinates": [11.585756, 44.842605]}, "properties": {"id": 112.0, "nome": null, "city": "Ferrara"}}, {"type": "Feature", "id": "978", "geometry": {"type": "Point", "coordinates": [11.634872, 44.82254]}, "properties": {"id": 854.0, "nome": "via Capodistria", "city": "Ferrara"}}, {"type": "Feature", "id": "979", "geometry": {"type": "Point", "coordinates": [11.627777, 44.82199]}, "properties": {"id": 173.0, "nome": null, "city": "Ferrara"}}, {"type": "Feature", "id": "980", "geometry": {"type": "Point", "coordinates": [11.628445, 44.821914]}, "properties": {"id": 174.0, "nome": null, "city": "Ferrara"}}, {"type": "Feature", "id": "981", "geometry": {"type": "Point", "coordinates": [11.595251, 44.83887]}, "properties": {"id": 111.0, "nome": null, "city": "Ferrara"}}, {"type": "Feature", "id": "982", "geometry": {"type": "Point", "coordinates": [11.612115, 44.863531]}, "properties": {"id": 434.0, "nome": "via Della Canapa da via Battara alla motorizzazion", "city": "Ferrara"}}, {"type": "Feature", "id": "983", "geometry": {"type": "Point", "coordinates": [11.60283, 44.797054]}, "properties": {"id": 533.0, "nome": null, "city": "Ferrara"}}, {"type": "Feature", "id": "984", "geometry": {"type": "Point", "coordinates": [11.618749, 44.822352]}, "properties": {"id": 170.0, "nome": null, "city": "Ferrara"}}, {"type": "Feature", "id": "985", "geometry": {"type": "Point", "coordinates": [11.642518, 44.82892]}, "properties": {"id": 927.0, "nome": "Via Malpasso", "city": "Ferrara"}}, {"type": "Feature", "id": "986", "geometry": {"type": "Point", "coordinates": [11.625722, 44.820142]}, "properties": {"id": 150.0, "nome": null, "city": "Ferrara"}}, {"type": "Feature", "id": "987", "geometry": {"type": "Point", "coordinates": [11.578723, 44.850234]}, "properties": {"id": 610.0, "nome": "Burana", "city": "Ferrara"}}, {"type": "Feature", "id": "988", "geometry": {"type": "Point", "coordinates": [11.59637, 44.826755]}, "properties": {"id": 204.0, "nome": null, "city": "Ferrara"}}, {"type": "Feature", "id": "989", "geometry": {"type": "Point", "coordinates": [11.626451, 44.820859]}, "properties": {"id": 153.0, "nome": null, "city": "Ferrara"}}, {"type": "Feature", "id": "990", "geometry": {"type": "Point", "coordinates": [11.609134, 44.819051]}, "properties": {"id": 1160.0, "nome": null, "city": "Ferrara"}}, {"type": "Feature", "id": "992", "geometry": {"type": "Point", "coordinates": [11.597812, 44.837987]}, "properties": {"id": 110.0, "nome": null, "city": "Ferrara"}}, {"type": "Feature", "id": "993", "geometry": {"type": "Point", "coordinates": [11.630628, 44.803435]}, "properties": {"id": 151.0, "nome": null, "city": "Ferrara"}}, {"type": "Feature", "id": "994", "geometry": {"type": "Point", "coordinates": [11.568079, 44.853893]}, "properties": {"id": 1309.0, "nome": "Burana", "city": "Ferrara"}}, {"type": "Feature", "id": "995", "geometry": {"type": "Point", "coordinates": [11.620648, 44.850139]}, "properties": {"id": 814.0, "nome": "via Azzo Novello", "city": "Ferrara"}}, {"type": "Feature", "id": "996", "geometry": {"type": "Point", "coordinates": [11.613047, 44.86034]}, "properties": {"id": 1168.0, "nome": "via Della Canapa da via Battara alla motorizzazion", "city": "Ferrara"}}, {"type": "Feature", "id": "997", "geometry": {"type": "Point", "coordinates": [11.602625, 44.819788]}, "properties": {"id": 1079.0, "nome": "collegamento via Beethoven via Verga", "city": "Ferrara"}}, {"type": "Feature", "id": "998", "geometry": {"type": "Point", "coordinates": [11.630559, 44.841354]}, "properties": {"id": 539.0, "nome": null, "city": "Ferrara"}}, {"type": "Feature", "id": "999", "geometry": {"type": "Point", "coordinates": [11.62833, 44.822902]}, "properties": {"id": 141.0, "nome": "via Ravenna", "city": "Ferrara"}}, {"type": "Feature", "id": "1000", "geometry": {"type": "Point", "coordinates": [11.633792, 44.831244]}, "properties": {"id": 41.0, "nome": "P.le Medaglie d'Oro", "city": "Ferrara"}}, {"type": "Feature", "id": "1001", "geometry": {"type": "Point", "coordinates": [11.664428, 44.839316]}, "properties": {"id": 1303.0, "nome": null, "city": "Ferrara"}}, {"type": "Feature", "id": "1002", "geometry": {"type": "Point", "coordinates": [11.612062, 44.886654]}, "properties": {"id": 515.0, "nome": null, "city": "Ferrara"}}, {"type": "Feature", "id": "1003", "geometry": {"type": "Point", "coordinates": [11.540771, 44.860283]}, "properties": {"id": 614.0, "nome": "Burana", "city": "Ferrara"}}, {"type": "Feature", "id": "1004", "geometry": {"type": "Point", "coordinates": [11.614258, 44.855457]}, "properties": {"id": 439.0, "nome": "via Canapa lato ovest", "city": "Ferrara"}}, {"type": "Feature", "id": "1005", "geometry": {"type": "Point", "coordinates": [11.64888, 44.829504]}, "properties": {"id": 780.0, "nome": "via Mari", "city": "Ferrara"}}, {"type": "Feature", "id": "1006", "geometry": {"type": "Point", "coordinates": [11.612238, 44.883812]}, "properties": {"id": 1385.0, "nome": null, "city": "Ferrara"}}, {"type": "Feature", "id": "1007", "geometry": {"type": "Point", "coordinates": [11.522981, 44.865325]}, "properties": {"id": 1289.0, "nome": "Burana", "city": "Ferrara"}}, {"type": "Feature", "id": "1008", "geometry": {"type": "Point", "coordinates": [11.680404, 44.797356]}, "properties": {"id": 593.0, "nome": "via Ricciarelli", "city": "Ferrara"}}, {"type": "Feature", "id": "1009", "geometry": {"type": "Point", "coordinates": [11.606377, 44.853039]}, "properties": {"id": 114.0, "nome": null, "city": "Ferrara"}}, {"type": "Feature", "id": "1010", "geometry": {"type": "Point", "coordinates": [11.613828, 44.828171]}, "properties": {"id": 1117.0, "nome": "via Goretti da via Bologna a via Pastro", "city": "Ferrara"}}, {"type": "Feature", "id": "1011", "geometry": {"type": "Point", "coordinates": [11.621499, 44.842394]}, "properties": {"id": 585.0, "nome": null, "city": "Ferrara"}}, {"type": "Feature", "id": "1012", "geometry": {"type": "Point", "coordinates": [11.661691, 44.742851]}, "properties": {"id": 476.0, "nome": "via G. Fabbri", "city": "Ferrara"}}, {"type": "Feature", "id": "1013", "geometry": {"type": "Point", "coordinates": [11.60311, 44.829158]}, "properties": {"id": 708.0, "nome": null, "city": "Ferrara"}}, {"type": "Feature", "id": "1014", "geometry": {"type": "Point", "coordinates": [11.649384, 44.827884]}, "properties": {"id": 768.0, "nome": "via Mari", "city": "Ferrara"}}, {"type": "Feature", "id": "1015", "geometry": {"type": "Point", "coordinates": [11.602733, 44.785602]}, "properties": {"id": 492.0, "nome": null, "city": "Ferrara"}}, {"type": "Feature", "id": "1016", "geometry": {"type": "Point", "coordinates": [11.618582, 44.85423]}, "properties": {"id": 230.0, "nome": null, "city": "Ferrara"}}, {"type": "Feature", "id": "1017", "geometry": {"type": "Point", "coordinates": [11.607124, 44.824859]}, "properties": {"id": 197.0, "nome": null, "city": "Ferrara"}}, {"type": "Feature", "id": "1018", "geometry": {"type": "Point", "coordinates": [11.609827, 44.820328]}, "properties": {"id": 166.0, "nome": null, "city": "Ferrara"}}, {"type": "Feature", "id": "1019", "geometry": {"type": "Point", "coordinates": [11.682308, 44.785165]}, "properties": {"id": 594.0, "nome": "via Ricciarelli", "city": "Ferrara"}}, {"type": "Feature", "id": "1020", "geometry": {"type": "Point", "coordinates": [11.599749, 44.825207]}, "properties": {"id": 205.0, "nome": null, "city": "Ferrara"}}, {"type": "Feature", "id": "1021", "geometry": {"type": "Point", "coordinates": [11.619165, 44.838481]}, "properties": {"id": 586.0, "nome": null, "city": "Ferrara"}}, {"type": "Feature", "id": "1022", "geometry": {"type": "Point", "coordinates": [11.593317, 44.8383]}, "properties": {"id": 201.0, "nome": null, "city": "Ferrara"}}, {"type": "Feature", "id": "1025", "geometry": {"type": "Point", "coordinates": [11.623481, 44.820616]}, "properties": {"id": 156.0, "nome": null, "city": "Ferrara"}}, {"type": "Feature", "id": "1026", "geometry": {"type": "Point", "coordinates": [11.647284, 44.830288]}, "properties": {"id": 1313.0, "nome": "collegamento da via Caretti a via Pontegradella a", "city": "Ferrara"}}, {"type": "Feature", "id": "1027", "geometry": {"type": "Point", "coordinates": [11.634862, 44.823905]}, "properties": {"id": 734.0, "nome": null, "city": "Ferrara"}}, {"type": "Feature", "id": "1028", "geometry": {"type": "Point", "coordinates": [11.634737, 44.826374]}, "properties": {"id": 329.0, "nome": "via Caldirolo", "city": "Ferrara"}}, {"type": "Feature", "id": "1029", "geometry": {"type": "Point", "coordinates": [11.63489, 44.825149]}, "properties": {"id": 734.0, "nome": "via Caldirolo", "city": "Ferrara"}}, {"type": "Feature", "id": "1030", "geometry": {"type": "Point", "coordinates": [11.634891, 44.822833]}, "properties": {"id": 734.0, "nome": null, "city": "Ferrara"}}, {"type": "Feature", "id": "1031", "geometry": {"type": "Point", "coordinates": [11.631187, 44.824329]}, "properties": {"id": 1060.0, "nome": null, "city": "Ferrara"}}, {"type": "Feature", "id": "1033", "geometry": {"type": "Point", "coordinates": [11.607853, 44.824435]}, "properties": {"id": 1066.0, "nome": null, "city": "Ferrara"}}, {"type": "Feature", "id": "1034", "geometry": {"type": "Point", "coordinates": [11.640226, 44.846828]}, "properties": {"id": 1334.0, "nome": null, "city": "Ferrara"}}, {"type": "Feature", "id": "1036", "geometry": {"type": "Point", "coordinates": [11.603345, 44.850137]}, "properties": {"id": 958.0, "nome": null, "city": "Ferrara"}}, {"type": "Feature", "id": "1038", "geometry": {"type": "Point", "coordinates": [11.601089, 44.828556]}, "properties": {"id": 685.0, "nome": null, "city": "Ferrara"}}, {"type": "Feature", "id": "1043", "geometry": {"type": "Point", "coordinates": [11.629015, 44.821241]}, "properties": {"id": 9007.0, "nome": null, "city": "Ferrara"}}, {"type": "Feature", "id": "1044", "geometry": {"type": "Point", "coordinates": [11.602021, 44.830545]}, "properties": {"id": 9010.0, "nome": null, "city": "Ferrara"}}, {"type": "Feature", "id": "1046", "geometry": {"type": "Point", "coordinates": [11.602139, 44.821986]}, "properties": {"id": 1048.0, "nome": null, "city": "Ferrara"}}, {"type": "Feature", "id": "1047", "geometry": {"type": "Point", "coordinates": [11.599624, 44.825279]}, "properties": {"id": 1049.0, "nome": null, "city": "Ferrara"}}, {"type": "Feature", "id": "1048", "geometry": {"type": "Point", "coordinates": [11.597072, 44.826181]}, "properties": {"id": 1041.0, "nome": null, "city": "Ferrara"}}, {"type": "Feature", "id": "1049", "geometry": {"type": "Point", "coordinates": [11.600251, 44.82382]}, "properties": {"id": 1042.0, "nome": null, "city": "Ferrara"}}, {"type": "Feature", "id": "1050", "geometry": {"type": "Point", "coordinates": [11.601487, 44.822067]}, "properties": {"id": 1043.0, "nome": null, "city": "Ferrara"}}, {"type": "Feature", "id": "1051", "geometry": {"type": "Point", "coordinates": [11.602953, 44.821022]}, "properties": {"id": 1044.0, "nome": null, "city": "Ferrara"}}, {"type": "Feature", "id": "1052", "geometry": {"type": "Point", "coordinates": [11.632395, 44.849313]}, "properties": {"id": 903.0, "nome": "Sottomura via Gramicia", "city": "Ferrara"}}, {"type": "Feature", "id": "1053", "geometry": {"type": "Point", "coordinates": [11.631473, 44.849164]}, "properties": {"id": 904.0, "nome": "Sottomura via Gramicia", "city": "Ferrara"}}, {"type": "Feature", "id": "1054", "geometry": {"type": "Point", "coordinates": [11.631825, 44.849106]}, "properties": {"id": 506.0, "nome": "Sottomura via Gramicia", "city": "Ferrara"}}, {"type": "Feature", "id": "1056", "geometry": {"type": "Point", "coordinates": [11.648728, 44.842631]}, "properties": {"id": 759.0, "nome": "via Caretti: collegamento via Copparo", "city": "Ferrara"}}, {"type": "Feature", "id": "1057", "geometry": {"type": "Point", "coordinates": [11.647259, 44.842068]}, "properties": {"id": 963.0, "nome": "via Caretti: collegamento via Copparo", "city": "Ferrara"}}, {"type": "Feature", "id": "1058", "geometry": {"type": "Point", "coordinates": [11.63393, 44.840811]}, "properties": {"id": 272.0, "nome": "c.so Porta Mare", "city": "Ferrara"}}, {"type": "Feature", "id": "1059", "geometry": {"type": "Point", "coordinates": [11.635231, 44.840528]}, "properties": {"id": 99.0, "nome": "P.le San Giovanni dal sottomura a via Gramicia", "city": "Ferrara"}}, {"type": "Feature", "id": "1060", "geometry": {"type": "Point", "coordinates": [11.627269, 44.851411]}, "properties": {"id": 9031.0, "nome": "Parco Urbano", "city": "Ferrara"}}, {"type": "Feature", "id": "1061", "geometry": {"type": "Point", "coordinates": [11.640331, 44.840357]}, "properties": {"id": 9011.0, "nome": "Borgo Punta", "city": "Ferrara"}}, {"type": "Feature", "id": "1062", "geometry": {"type": "Point", "coordinates": [11.595642, 44.827078]}, "properties": {"id": 1040.0, "nome": null, "city": "Ferrara"}}, {"type": "Feature", "id": "1064", "geometry": {"type": "Point", "coordinates": [11.610014, 44.850399]}, "properties": {"id": 224.0, "nome": null, "city": "Ferrara"}}, {"type": "Feature", "id": "1065", "geometry": {"type": "Point", "coordinates": [11.603664, 44.849151]}, "properties": {"id": 200.0, "nome": null, "city": "Ferrara"}}, {"type": "Feature", "id": "1067", "geometry": {"type": "Point", "coordinates": [11.640377, 44.821579]}, "properties": {"id": 32.0, "nome": "via Comacchio lato sud", "city": "Ferrara"}}, {"type": "Feature", "id": "1068", "geometry": {"type": "Point", "coordinates": [11.635145, 44.822701]}, "properties": {"id": 733.0, "nome": null, "city": "Ferrara"}}, {"type": "Feature", "id": "1069", "geometry": {"type": "Point", "coordinates": [11.600378, 44.840846]}, "properties": {"id": 9004.0, "nome": null, "city": "Ferrara"}}, {"type": "Feature", "id": "1070", "geometry": {"type": "Point", "coordinates": [11.599705, 44.83982]}, "properties": {"id": 9005.0, "nome": null, "city": "Ferrara"}}, {"type": "Feature", "id": "1071", "geometry": {"type": "Point", "coordinates": [11.629989, 44.821031]}, "properties": {"id": 9006.0, "nome": null, "city": "Ferrara"}}, {"type": "Feature", "id": "1072", "geometry": {"type": "Point", "coordinates": [11.630686, 44.820862]}, "properties": {"id": 9007.0, "nome": null, "city": "Ferrara"}}, {"type": "Feature", "id": "1073", "geometry": {"type": "Point", "coordinates": [11.629014, 44.82124]}, "properties": {"id": 9009.0, "nome": null, "city": "Ferrara"}}, {"type": "Feature", "id": "1074", "geometry": {"type": "Point", "coordinates": [11.692605, 44.801929]}, "properties": {"id": 520.0, "nome": null, "city": "Ferrara"}}, {"type": "Feature", "id": "1075", "geometry": {"type": "Point", "coordinates": [11.692732, 44.800864]}, "properties": {"id": 9023.0, "nome": "Ospedale Cona", "city": "Ferrara"}}, {"type": "Feature", "id": "1076", "geometry": {"type": "Point", "coordinates": [11.634593, 44.826781]}, "properties": {"id": 9026.0, "nome": null, "city": "Ferrara"}}, {"type": "Feature", "id": "1077", "geometry": {"type": "Point", "coordinates": [11.654395, 44.846154]}, "properties": {"id": 9029.0, "nome": null, "city": "Ferrara"}}, {"type": "Feature", "id": "1078", "geometry": {"type": "Point", "coordinates": [11.64096, 44.833579]}, "properties": {"id": 9030.0, "nome": null, "city": "Ferrara"}}, {"type": "Feature", "id": "1079", "geometry": {"type": "Point", "coordinates": [11.64748, 44.84448]}, "properties": {"id": 9019.0, "nome": "via Caretti: collegamento via Copparo", "city": "Ferrara"}}, {"type": "Feature", "id": "1080", "geometry": {"type": "Point", "coordinates": [11.64748, 44.84448]}, "properties": {"id": 9020.0, "nome": "via Caretti: collegamento via Copparo", "city": "Ferrara"}}, {"type": "Feature", "id": "1081", "geometry": {"type": "Point", "coordinates": [11.617561, 44.825869]}, "properties": {"id": 9022.0, "nome": null, "city": "Ferrara"}}, {"type": "Feature", "id": "1082", "geometry": {"type": "Point", "coordinates": [11.635633, 44.840314]}, "properties": {"id": 9012.0, "nome": null, "city": "Ferrara"}}, {"type": "Feature", "id": "1083", "geometry": {"type": "Point", "coordinates": [11.635786, 44.840541]}, "properties": {"id": 9013.0, "nome": null, "city": "Ferrara"}}, {"type": "Feature", "id": "1084", "geometry": {"type": "Point", "coordinates": [11.634846, 44.840796]}, "properties": {"id": 9014.0, "nome": null, "city": "Ferrara"}}, {"type": "Feature", "id": "1085", "geometry": {"type": "Point", "coordinates": [11.630208, 44.824036]}, "properties": {"id": 9015.0, "nome": null, "city": "Ferrara"}}, {"type": "Feature", "id": "1086", "geometry": {"type": "Point", "coordinates": [11.6296, 44.824211]}, "properties": {"id": 9016.0, "nome": null, "city": "Ferrara"}}, {"type": "Feature", "id": "1087", "geometry": {"type": "Point", "coordinates": [11.629818, 44.824088]}, "properties": {"id": 9017.0, "nome": null, "city": "Ferrara"}}, {"type": "Feature", "id": "1088", "geometry": {"type": "Point", "coordinates": [11.630006, 44.823974]}, "properties": {"id": 9018.0, "nome": null, "city": "Ferrara"}}, {"type": "Feature", "id": "1089", "geometry": {"type": "Point", "coordinates": [11.660268, 44.846618]}, "properties": {"id": 1286.0, "nome": null, "city": "Ferrara"}}, {"type": "Feature", "id": "1092", "geometry": {"type": "Point", "coordinates": [11.628591, 44.822115]}, "properties": {"id": 306.0, "nome": "via Ravenna San Giorgio", "city": "Ferrara"}}, {"type": "Feature", "id": "1095", "geometry": {"type": "Point", "coordinates": [11.597329, 44.826494]}, "properties": {"id": 1051.0, "nome": null, "city": "Ferrara"}}, {"type": "Feature", "id": "1096", "geometry": {"type": "Point", "coordinates": [11.595837, 44.827219]}, "properties": {"id": 1052.0, "nome": null, "city": "Ferrara"}}, {"type": "Feature", "id": "4", "geometry": {"type": "Point", "coordinates": [11.609769, 44.820249]}, "properties": {"id": 169.0, "nome": null, "city": "Ferrara"}}, {"type": "Feature", "id": "18", "geometry": {"type": "Point", "coordinates": [11.632978, 44.819655]}, "properties": {"id": 552.0, "nome": null, "city": "Ferrara"}}, {"type": "Feature", "id": "29", "geometry": {"type": "Point", "coordinates": [11.599626, 44.847711]}, "properties": {"id": 1177.0, "nome": null, "city": "Ferrara"}}, {"type": "Feature", "id": "36", "geometry": {"type": "Point", "coordinates": [11.626863, 44.854134]}, "properties": {"id": 233.0, "nome": null, "city": "Ferrara"}}, {"type": "Feature", "id": "71", "geometry": {"type": "Point", "coordinates": [11.603677, 44.828809]}, "properties": {"id": 720.0, "nome": null, "city": "Ferrara"}}, {"type": "Feature", "id": "93", "geometry": {"type": "Point", "coordinates": [11.625912, 44.875966]}, "properties": {"id": 96.0, "nome": "Parco Urbano da via Lavezzola a via Conchetta", "city": "Ferrara"}}, {"type": "Feature", "id": "97", "geometry": {"type": "Point", "coordinates": [11.666974, 44.839318]}, "properties": {"id": 989.0, "nome": null, "city": "Ferrara"}}, {"type": "Feature", "id": "163", "geometry": {"type": "Point", "coordinates": [11.601407, 44.830306]}, "properties": {"id": 719.0, "nome": null, "city": "Ferrara"}}, {"type": "Feature", "id": "261", "geometry": {"type": "Point", "coordinates": [11.601694, 44.830409]}, "properties": {"id": 1308.0, "nome": null, "city": "Ferrara"}}, {"type": "Feature", "id": "264", "geometry": {"type": "Point", "coordinates": [11.607138, 44.877843]}, "properties": {"id": 1139.0, "nome": null, "city": "Ferrara"}}, {"type": "Feature", "id": "391", "geometry": {"type": "Point", "coordinates": [11.60208, 44.830236]}, "properties": {"id": 706.0, "nome": null, "city": "Ferrara"}}, {"type": "Feature", "id": "462", "geometry": {"type": "Point", "coordinates": [11.601726, 44.829992]}, "properties": {"id": 710.0, "nome": null, "city": "Ferrara"}}, {"type": "Feature", "id": "480", "geometry": {"type": "Point", "coordinates": [11.651905, 44.828121]}, "properties": {"id": 773.0, "nome": null, "city": "Ferrara"}}, {"type": "Feature", "id": "625", "geometry": {"type": "Point", "coordinates": [11.664193, 44.839272]}, "properties": {"id": 990.0, "nome": null, "city": "Ferrara"}}, {"type": "Feature", "id": "676", "geometry": {"type": "Point", "coordinates": [11.620093, 44.819097]}, "properties": {"id": 211.0, "nome": null, "city": "Ferrara"}}, {"type": "Feature", "id": "723", "geometry": {"type": "Point", "coordinates": [11.603118, 44.785693]}, "properties": {"id": 534.0, "nome": null, "city": "Ferrara"}}, {"type": "Feature", "id": "735", "geometry": {"type": "Point", "coordinates": [11.638917, 44.886382]}, "properties": {"id": 510.0, "nome": null, "city": "Ferrara"}}, {"type": "Feature", "id": "736", "geometry": {"type": "Point", "coordinates": [11.604647, 44.8516]}, "properties": {"id": 116.0, "nome": null, "city": "Ferrara"}}, {"type": "Feature", "id": "744", "geometry": {"type": "Point", "coordinates": [11.596778, 44.836963]}, "properties": {"id": 1095.0, "nome": null, "city": "Ferrara"}}, {"type": "Feature", "id": "747", "geometry": {"type": "Point", "coordinates": [11.600041, 44.827705]}, "properties": {"id": 1151.0, "nome": null, "city": "Ferrara"}}, {"type": "Feature", "id": "784", "geometry": {"type": "Point", "coordinates": [11.63069, 44.806201]}, "properties": {"id": 149.0, "nome": null, "city": "Ferrara"}}, {"type": "Feature", "id": "790", "geometry": {"type": "Point", "coordinates": [11.728939, 44.804276]}, "properties": {"id": 1258.0, "nome": null, "city": "Ferrara"}}, {"type": "Feature", "id": "791", "geometry": {"type": "Point", "coordinates": [11.619999, 44.879016]}, "properties": {"id": 1153.0, "nome": null, "city": "Ferrara"}}, {"type": "Feature", "id": "808", "geometry": {"type": "Point", "coordinates": [11.607964, 44.824506]}, "properties": {"id": 198.0, "nome": null, "city": "Ferrara"}}, {"type": "Feature", "id": "820", "geometry": {"type": "Point", "coordinates": [11.663892, 44.839439]}, "properties": {"id": 1071.0, "nome": null, "city": "Ferrara"}}, {"type": "Feature", "id": "825", "geometry": {"type": "Point", "coordinates": [11.628089, 44.818945]}, "properties": {"id": 164.0, "nome": null, "city": "Ferrara"}}, {"type": "Feature", "id": "837", "geometry": {"type": "Point", "coordinates": [11.641631, 44.82812]}, "properties": {"id": 234.0, "nome": null, "city": "Ferrara"}}, {"type": "Feature", "id": "855", "geometry": {"type": "Point", "coordinates": [11.611367, 44.822071]}, "properties": {"id": 157.0, "nome": null, "city": "Ferrara"}}, {"type": "Feature", "id": "860", "geometry": {"type": "Point", "coordinates": [11.610169, 44.88198]}, "properties": {"id": 1184.0, "nome": "via Venezia", "city": "Ferrara"}}, {"type": "Feature", "id": "876", "geometry": {"type": "Point", "coordinates": [11.609514, 44.787924]}, "properties": {"id": 491.0, "nome": null, "city": "Ferrara"}}, {"type": "Feature", "id": "894", "geometry": {"type": "Point", "coordinates": [11.631221, 44.826069]}, "properties": {"id": 1316.0, "nome": null, "city": "Ferrara"}}, {"type": "Feature", "id": "906", "geometry": {"type": "Point", "coordinates": [11.596351, 44.783252]}, "properties": {"id": 493.0, "nome": null, "city": "Ferrara"}}, {"type": "Feature", "id": "920", "geometry": {"type": "Point", "coordinates": [11.65511, 44.829669]}, "properties": {"id": 1265.0, "nome": null, "city": "Ferrara"}}, {"type": "Feature", "id": "924", "geometry": {"type": "Point", "coordinates": [11.640339, 44.836071]}, "properties": {"id": 178.0, "nome": null, "city": "Ferrara"}}, {"type": "Feature", "id": "936", "geometry": {"type": "Point", "coordinates": [11.67328, 44.854066]}, "properties": {"id": 1083.0, "nome": null, "city": "Ferrara"}}, {"type": "Feature", "id": "954", "geometry": {"type": "Point", "coordinates": [11.628215, 44.820037]}, "properties": {"id": 310.0, "nome": null, "city": "Ferrara"}}, {"type": "Feature", "id": "958", "geometry": {"type": "Point", "coordinates": [11.555198, 44.851461]}, "properties": {"id": 1267.0, "nome": null, "city": "Ferrara"}}, {"type": "Feature", "id": "961", "geometry": {"type": "Point", "coordinates": [11.619196, 44.83854]}, "properties": {"id": 490.0, "nome": null, "city": "Ferrara"}}, {"type": "Feature", "id": "967", "geometry": {"type": "Point", "coordinates": [11.596008, 44.813301]}, "properties": {"id": 1282.0, "nome": null, "city": "Ferrara"}}, {"type": "Feature", "id": "970", "geometry": {"type": "Point", "coordinates": [11.650087, 44.84638]}, "properties": {"id": 548.0, "nome": null, "city": "Ferrara"}}, {"type": "Feature", "id": "974", "geometry": {"type": "Point", "coordinates": [11.629823, 44.816304]}, "properties": {"id": 1278.0, "nome": null, "city": "Ferrara"}}, {"type": "Feature", "id": "977", "geometry": {"type": "Point", "coordinates": [11.595076, 44.837625]}, "properties": {"id": 202.0, "nome": null, "city": "Ferrara"}}, {"type": "Feature", "id": "991", "geometry": {"type": "Point", "coordinates": [11.652107, 44.850577]}, "properties": {"id": 546.0, "nome": null, "city": "Ferrara"}}, {"type": "Feature", "id": "1023", "geometry": {"type": "Point", "coordinates": [11.602188, 44.829552]}, "properties": {"id": 714.0, "nome": null, "city": "Ferrara"}}, {"type": "Feature", "id": "1024", "geometry": {"type": "Point", "coordinates": [11.586774, 44.806652]}, "properties": {"id": 1167.0, "nome": null, "city": "Ferrara"}}, {"type": "Feature", "id": "10", "geometry": {"type": "Point", "coordinates": [11.648939, 44.86337]}, "properties": {"id": 976.0, "nome": null, "city": "Ferrara"}}, {"type": "Feature", "id": "27", "geometry": {"type": "Point", "coordinates": [11.649743, 44.8628]}, "properties": {"id": 972.0, "nome": null, "city": "Ferrara"}}, {"type": "Feature", "id": "51", "geometry": {"type": "Point", "coordinates": [11.606205, 44.865444]}, "properties": {"id": 95.0, "nome": "Centro Diamante - via del Baiocco", "city": "Ferrara"}}, {"type": "Feature", "id": "52", "geometry": {"type": "Point", "coordinates": [11.648189, 44.864118]}, "properties": {"id": 1382.0, "nome": null, "city": "Ferrara"}}, {"type": "Feature", "id": "75", "geometry": {"type": "Point", "coordinates": [11.551363, 44.857624]}, "properties": {"id": 1288.0, "nome": "Burana", "city": "Ferrara"}}, {"type": "Feature", "id": "77", "geometry": {"type": "Point", "coordinates": [11.61588, 44.885454]}, "properties": {"id": 1141.0, "nome": "via Lavezzola da via  Ricostruzione a via Calzolai", "city": "Ferrara"}}, {"type": "Feature", "id": "81", "geometry": {"type": "Point", "coordinates": [11.610987, 44.847091]}, "properties": {"id": 1406.0, "nome": null, "city": "Ferrara"}}, {"type": "Feature", "id": "103", "geometry": {"type": "Point", "coordinates": [11.606084, 44.852884]}, "properties": {"id": 669.0, "nome": "via Padova", "city": "Ferrara"}}, {"type": "Feature", "id": "110", "geometry": {"type": "Point", "coordinates": [11.602521, 44.840498]}, "properties": {"id": 1126.0, "nome": "via San Giacomo", "city": "Ferrara"}}, {"type": "Feature", "id": "115", "geometry": {"type": "Point", "coordinates": [11.552843, 44.851557]}, "properties": {"id": 632.0, "nome": "via X Martiri", "city": "Ferrara"}}, {"type": "Feature", "id": "116", "geometry": {"type": "Point", "coordinates": [11.642796, 44.857353]}, "properties": {"id": 1349.0, "nome": "via Calzolai dal collegamento con via Gramicia a F", "city": "Ferrara"}}, {"type": "Feature", "id": "121", "geometry": {"type": "Point", "coordinates": [11.622335, 44.82223]}, "properties": {"id": 1205.0, "nome": "via G. Fabbri da Rivana via Pasolini", "city": "Ferrara"}}, {"type": "Feature", "id": "132", "geometry": {"type": "Point", "coordinates": [11.651224, 44.85704]}, "properties": {"id": 1274.0, "nome": null, "city": "Ferrara"}}, {"type": "Feature", "id": "162", "geometry": {"type": "Point", "coordinates": [11.612465, 44.846708]}, "properties": {"id": 50.0, "nome": "sopramura viale Belvedere", "city": "Ferrara"}}, {"type": "Feature", "id": "181", "geometry": {"type": "Point", "coordinates": [11.607198, 44.877731]}, "properties": {"id": 1386.0, "nome": null, "city": "Ferrara"}}, {"type": "Feature", "id": "188", "geometry": {"type": "Point", "coordinates": [11.615174, 44.842873]}, "properties": {"id": 1340.0, "nome": "via Don E. Tazzoli", "city": "Ferrara"}}, {"type": "Feature", "id": "195", "geometry": {"type": "Point", "coordinates": [11.60977, 44.843784]}, "properties": {"id": 1199.0, "nome": "via Barriere", "city": "Ferrara"}}, {"type": "Feature", "id": "221", "geometry": {"type": "Point", "coordinates": [11.748076, 44.881517]}, "properties": {"id": 1165.0, "nome": "via Copparo", "city": "Ferrara"}}, {"type": "Feature", "id": "225", "geometry": {"type": "Point", "coordinates": [11.606945, 44.844401]}, "properties": {"id": 397.0, "nome": "viale Cavour giardini Costituzione", "city": "Ferrara"}}, {"type": "Feature", "id": "230", "geometry": {"type": "Point", "coordinates": [11.617339, 44.823813]}, "properties": {"id": 1375.0, "nome": "via Tommaso Roveroni", "city": "Ferrara"}}, {"type": "Feature", "id": "233", "geometry": {"type": "Point", "coordinates": [11.611796, 44.845991]}, "properties": {"id": 730.0, "nome": "viale Belvedere lato ovest", "city": "Ferrara"}}, {"type": "Feature", "id": "234", "geometry": {"type": "Point", "coordinates": [11.642654, 44.82884]}, "properties": {"id": 928.0, "nome": "Via Malpasso", "city": "Ferrara"}}, {"type": "Feature", "id": "236", "geometry": {"type": "Point", "coordinates": [11.647041, 44.831098]}, "properties": {"id": 931.0, "nome": "collegamento da via Caretti a via Pontegradella a", "city": "Ferrara"}}, {"type": "Feature", "id": "239", "geometry": {"type": "Point", "coordinates": [11.62165, 44.823032]}, "properties": {"id": 1074.0, "nome": "via G. Fabbri da via Putinati a via Pasolini", "city": "Ferrara"}}, {"type": "Feature", "id": "252", "geometry": {"type": "Point", "coordinates": [11.647897, 44.86305]}, "properties": {"id": 981.0, "nome": null, "city": "Ferrara"}}, {"type": "Feature", "id": "270", "geometry": {"type": "Point", "coordinates": [11.647631, 44.860271]}, "properties": {"id": 1328.0, "nome": null, "city": "Ferrara"}}, {"type": "Feature", "id": "271", "geometry": {"type": "Point", "coordinates": [11.64842, 44.862975]}, "properties": {"id": 1164.0, "nome": null, "city": "Ferrara"}}, {"type": "Feature", "id": "275", "geometry": {"type": "Point", "coordinates": [11.649973, 44.82873]}, "properties": {"id": 779.0, "nome": "via Mari", "city": "Ferrara"}}, {"type": "Feature", "id": "283", "geometry": {"type": "Point", "coordinates": [11.662119, 44.902135]}, "properties": {"id": 1343.0, "nome": "Francolino: collegamento via della Carpa e via del", "city": "Ferrara"}}, {"type": "Feature", "id": "287", "geometry": {"type": "Point", "coordinates": [11.64117, 44.828024]}, "properties": {"id": 790.0, "nome": "via Pomposa", "city": "Ferrara"}}, {"type": "Feature", "id": "298", "geometry": {"type": "Point", "coordinates": [11.60739, 44.824573]}, "properties": {"id": 1064.0, "nome": null, "city": "Ferrara"}}, {"type": "Feature", "id": "301", "geometry": {"type": "Point", "coordinates": [11.622801, 44.851317]}, "properties": {"id": 751.0, "nome": "Parco Urbano - via Azzo Novello", "city": "Ferrara"}}, {"type": "Feature", "id": "302", "geometry": {"type": "Point", "coordinates": [11.622643, 44.821557]}, "properties": {"id": 1093.0, "nome": "via G. Fabbri Pasolini", "city": "Ferrara"}}, {"type": "Feature", "id": "305", "geometry": {"type": "Point", "coordinates": [11.640544, 44.828072]}, "properties": {"id": 466.0, "nome": "collegamento via Chendi viale Olanda", "city": "Ferrara"}}, {"type": "Feature", "id": "306", "geometry": {"type": "Point", "coordinates": [11.661694, 44.847033]}, "properties": {"id": 573.0, "nome": null, "city": "Ferrara"}}, {"type": "Feature", "id": "307", "geometry": {"type": "Point", "coordinates": [11.639897, 44.828958]}, "properties": {"id": 1145.0, "nome": "via Pacinotti da via Francia a via Pomposa", "city": "Ferrara"}}, {"type": "Feature", "id": "321", "geometry": {"type": "Point", "coordinates": [11.612832, 44.821547]}, "properties": {"id": 1204.0, "nome": "via Boldrini da via Canani alla ferrovia", "city": "Ferrara"}}, {"type": "Feature", "id": "326", "geometry": {"type": "Point", "coordinates": [11.618974, 44.838419]}, "properties": {"id": 1196.0, "nome": "viale Cavour giardini", "city": "Ferrara"}}, {"type": "Feature", "id": "327", "geometry": {"type": "Point", "coordinates": [11.605066, 44.867982]}, "properties": {"id": 648.0, "nome": "Centro Diamante - via del Baiocco", "city": "Ferrara"}}, {"type": "Feature", "id": "333", "geometry": {"type": "Point", "coordinates": [11.640067, 44.817285]}, "properties": {"id": 1149.0, "nome": "via Boschetto", "city": "Ferrara"}}, {"type": "Feature", "id": "341", "geometry": {"type": "Point", "coordinates": [11.609786, 44.844274]}, "properties": {"id": 1239.0, "nome": "viale Belvedere lato est", "city": "Ferrara"}}, {"type": "Feature", "id": "349", "geometry": {"type": "Point", "coordinates": [11.600939, 44.816499]}, "properties": {"id": 1113.0, "nome": "via Bologna lato est", "city": "Ferrara"}}, {"type": "Feature", "id": "376", "geometry": {"type": "Point", "coordinates": [11.599759, 44.830298]}, "properties": {"id": 1302.0, "nome": "colelgamento tra via dello Zucchero e via Barlaam", "city": "Ferrara"}}, {"type": "Feature", "id": "377", "geometry": {"type": "Point", "coordinates": [11.632688, 44.831925]}, "properties": {"id": 461.0, "nome": "corso Giovecca", "city": "Ferrara"}}, {"type": "Feature", "id": "382", "geometry": {"type": "Point", "coordinates": [11.609199, 44.878771]}, "properties": {"id": 1387.0, "nome": null, "city": "Ferrara"}}, {"type": "Feature", "id": "384", "geometry": {"type": "Point", "coordinates": [11.613074, 44.821902]}, "properties": {"id": 1092.0, "nome": "via Boldrini da via Canani alla ferrovia", "city": "Ferrara"}}, {"type": "Feature", "id": "403", "geometry": {"type": "Point", "coordinates": [11.598335, 44.844907]}, "properties": {"id": 623.0, "nome": null, "city": "Ferrara"}}, {"type": "Feature", "id": "404", "geometry": {"type": "Point", "coordinates": [11.62806, 44.819226]}, "properties": {"id": 214.0, "nome": "via Ravenna", "city": "Ferrara"}}, {"type": "Feature", "id": "407", "geometry": {"type": "Point", "coordinates": [11.597991, 44.836527]}, "properties": {"id": 1317.0, "nome": "via Arginone", "city": "Ferrara"}}, {"type": "Feature", "id": "410", "geometry": {"type": "Point", "coordinates": [11.639766, 44.827222]}, "properties": {"id": 1404.0, "nome": null, "city": "Ferrara"}}, {"type": "Feature", "id": "417", "geometry": {"type": "Point", "coordinates": [11.632016, 44.820955]}, "properties": {"id": 1370.0, "nome": null, "city": "Ferrara"}}, {"type": "Feature", "id": "435", "geometry": {"type": "Point", "coordinates": [11.616671, 44.854096]}, "properties": {"id": 833.0, "nome": "Parco Urbano - via Azzo Novello", "city": "Ferrara"}}, {"type": "Feature", "id": "436", "geometry": {"type": "Point", "coordinates": [11.649719, 44.827643]}, "properties": {"id": 769.0, "nome": "via Mari", "city": "Ferrara"}}, {"type": "Feature", "id": "445", "geometry": {"type": "Point", "coordinates": [11.610175, 44.845184]}, "properties": {"id": 442.0, "nome": "Sottomura via Porta Catena da via Bacchelli a via", "city": "Ferrara"}}, {"type": "Feature", "id": "473", "geometry": {"type": "Point", "coordinates": [11.614653, 44.841496]}, "properties": {"id": 1352.0, "nome": "via Don E. Tazzoli", "city": "Ferrara"}}, {"type": "Feature", "id": "477", "geometry": {"type": "Point", "coordinates": [11.646682, 44.860386]}, "properties": {"id": 1353.0, "nome": null, "city": "Ferrara"}}, {"type": "Feature", "id": "492", "geometry": {"type": "Point", "coordinates": [11.602213, 44.826844]}, "properties": {"id": 1105.0, "nome": null, "city": "Ferrara"}}, {"type": "Feature", "id": "493", "geometry": {"type": "Point", "coordinates": [11.596925, 44.827546]}, "properties": {"id": 940.0, "nome": "collegameneto via Ippolito Nievo viale Krasnodar", "city": "Ferrara"}}, {"type": "Feature", "id": "502", "geometry": {"type": "Point", "coordinates": [11.63948, 44.840257]}, "properties": {"id": 1137.0, "nome": "da via Don Zanardi a via del Biancospino", "city": "Ferrara"}}, {"type": "Feature", "id": "503", "geometry": {"type": "Point", "coordinates": [11.581577, 44.843135]}, "properties": {"id": 1231.0, "nome": "via Schiavoni lato ovest", "city": "Ferrara"}}, {"type": "Feature", "id": "506", "geometry": {"type": "Point", "coordinates": [11.598969, 44.846165]}, "properties": {"id": 1236.0, "nome": "via Marconi", "city": "Ferrara"}}, {"type": "Feature", "id": "513", "geometry": {"type": "Point", "coordinates": [11.649275, 44.864622]}, "properties": {"id": 1381.0, "nome": null, "city": "Ferrara"}}, {"type": "Feature", "id": "517", "geometry": {"type": "Point", "coordinates": [11.62036, 44.849479]}, "properties": {"id": 811.0, "nome": "via Azzo Novello", "city": "Ferrara"}}, {"type": "Feature", "id": "519", "geometry": {"type": "Point", "coordinates": [11.605278, 44.840545]}, "properties": {"id": 392.0, "nome": "corso Piave lato sud", "city": "Ferrara"}}, {"type": "Feature", "id": "529", "geometry": {"type": "Point", "coordinates": [11.662388, 44.847532]}, "properties": {"id": 574.0, "nome": null, "city": "Ferrara"}}, {"type": "Feature", "id": "542", "geometry": {"type": "Point", "coordinates": [11.612879, 44.88539]}, "properties": {"id": 740.0, "nome": null, "city": "Ferrara"}}, {"type": "Feature", "id": "543", "geometry": {"type": "Point", "coordinates": [11.637764, 44.841918]}, "properties": {"id": 1186.0, "nome": "via Giovanni XXIII", "city": "Ferrara"}}, {"type": "Feature", "id": "558", "geometry": {"type": "Point", "coordinates": [11.648016, 44.863499]}, "properties": {"id": 978.0, "nome": null, "city": "Ferrara"}}, {"type": "Feature", "id": "575", "geometry": {"type": "Point", "coordinates": [11.605443, 44.83735]}, "properties": {"id": 26.0, "nome": "sopramura Baluardo San Paolo alla Fortezza", "city": "Ferrara"}}, {"type": "Feature", "id": "581", "geometry": {"type": "Point", "coordinates": [11.62271, 44.821471]}, "properties": {"id": 1206.0, "nome": "via G. Fabbri da via Caduti di Cefalonia a Rivana", "city": "Ferrara"}}, {"type": "Feature", "id": "591", "geometry": {"type": "Point", "coordinates": [11.641459, 44.837151]}, "properties": {"id": 1140.0, "nome": "via del Melo", "city": "Ferrara"}}, {"type": "Feature", "id": "595", "geometry": {"type": "Point", "coordinates": [11.614313, 44.823162]}, "properties": {"id": 334.0, "nome": "via Boldrini da via Poletti a via Grillenzoni", "city": "Ferrara"}}, {"type": "Feature", "id": "599", "geometry": {"type": "Point", "coordinates": [11.614305, 44.823239]}, "properties": {"id": 5.0, "nome": "via Boldrini da via Poletti a via Grillenzoni", "city": "Ferrara"}}, {"type": "Feature", "id": "603", "geometry": {"type": "Point", "coordinates": [11.606857, 44.843639]}, "properties": {"id": 388.0, "nome": "viale Costituzione lato sud", "city": "Ferrara"}}, {"type": "Feature", "id": "623", "geometry": {"type": "Point", "coordinates": [11.581113, 44.842871]}, "properties": {"id": 1232.0, "nome": "via Arginone lato nord", "city": "Ferrara"}}, {"type": "Feature", "id": "636", "geometry": {"type": "Point", "coordinates": [11.646156, 44.820349]}, "properties": {"id": 878.0, "nome": null, "city": "Ferrara"}}, {"type": "Feature", "id": "644", "geometry": {"type": "Point", "coordinates": [11.641836, 44.8284]}, "properties": {"id": 1017.0, "nome": null, "city": "Ferrara"}}, {"type": "Feature", "id": "650", "geometry": {"type": "Point", "coordinates": [11.638349, 44.840919]}, "properties": {"id": 1170.0, "nome": "via Don Zanardi", "city": "Ferrara"}}, {"type": "Feature", "id": "657", "geometry": {"type": "Point", "coordinates": [11.641696, 44.827977]}, "properties": {"id": 788.0, "nome": "via Pomposa", "city": "Ferrara"}}, {"type": "Feature", "id": "661", "geometry": {"type": "Point", "coordinates": [11.639641, 44.828795]}, "properties": {"id": 1175.0, "nome": "via Pomposa Pacinotti", "city": "Ferrara"}}, {"type": "Feature", "id": "664", "geometry": {"type": "Point", "coordinates": [11.644267, 44.827497]}, "properties": {"id": 789.0, "nome": "via Pomposa", "city": "Ferrara"}}, {"type": "Feature", "id": "669", "geometry": {"type": "Point", "coordinates": [11.621979, 44.827916]}, "properties": {"id": 294.0, "nome": "sottomura Quartieri", "city": "Ferrara"}}, {"type": "Feature", "id": "686", "geometry": {"type": "Point", "coordinates": [11.595955, 44.823956]}, "properties": {"id": 696.0, "nome": null, "city": "Ferrara"}}, {"type": "Feature", "id": "692", "geometry": {"type": "Point", "coordinates": [11.597429, 44.83412]}, "properties": {"id": 1301.0, "nome": "via Saragat", "city": "Ferrara"}}, {"type": "Feature", "id": "694", "geometry": {"type": "Point", "coordinates": [11.582043, 44.845263]}, "properties": {"id": 1377.0, "nome": null, "city": "Ferrara"}}, {"type": "Feature", "id": "697", "geometry": {"type": "Point", "coordinates": [11.563505, 44.855891]}, "properties": {"id": 612.0, "nome": "Pista ciclabile urbana", "city": "Ferrara"}}, {"type": "Feature", "id": "698", "geometry": {"type": "Point", "coordinates": [11.556003, 44.857816]}, "properties": {"id": 1290.0, "nome": "Pista ciclabile urbana", "city": "Ferrara"}}, {"type": "Feature", "id": "700", "geometry": {"type": "Point", "coordinates": [11.600664, 44.836278]}, "properties": {"id": 1295.0, "nome": "via Mulinetto", "city": "Ferrara"}}, {"type": "Feature", "id": "701", "geometry": {"type": "Point", "coordinates": [11.599582, 44.849805]}, "properties": {"id": 1348.0, "nome": null, "city": "Ferrara"}}, {"type": "Feature", "id": "705", "geometry": {"type": "Point", "coordinates": [11.612224, 44.841323]}, "properties": {"id": 1395.0, "nome": null, "city": "Ferrara"}}, {"type": "Feature", "id": "707", "geometry": {"type": "Point", "coordinates": [11.618541, 44.852714]}, "properties": {"id": 1320.0, "nome": "Parco Urbano - via Azzo Novello", "city": "Ferrara"}}, {"type": "Feature", "id": "722", "geometry": {"type": "Point", "coordinates": [11.648965, 44.863462]}, "properties": {"id": 1383.0, "nome": null, "city": "Ferrara"}}, {"type": "Feature", "id": "731", "geometry": {"type": "Point", "coordinates": [11.628155, 44.822237]}, "properties": {"id": 143.0, "nome": "via Ravenna", "city": "Ferrara"}}, {"type": "Feature", "id": "734", "geometry": {"type": "Point", "coordinates": [11.612138, 44.841585]}, "properties": {"id": 417.0, "nome": "via Vittorio Veneto", "city": "Ferrara"}}, {"type": "Feature", "id": "768", "geometry": {"type": "Point", "coordinates": [11.563666, 44.854605]}, "properties": {"id": 1287.0, "nome": "Burana", "city": "Ferrara"}}, {"type": "Feature", "id": "778", "geometry": {"type": "Point", "coordinates": [11.552934, 44.851598]}, "properties": {"id": 1087.0, "nome": null, "city": "Ferrara"}}, {"type": "Feature", "id": "796", "geometry": {"type": "Point", "coordinates": [11.632928, 44.819705]}, "properties": {"id": 889.0, "nome": "via Boschetto", "city": "Ferrara"}}, {"type": "Feature", "id": "821", "geometry": {"type": "Point", "coordinates": [11.628582, 44.824383]}, "properties": {"id": 136.0, "nome": "via Ravenna", "city": "Ferrara"}}, {"type": "Feature", "id": "836", "geometry": {"type": "Point", "coordinates": [11.650039, 44.863877]}, "properties": {"id": 1384.0, "nome": null, "city": "Ferrara"}}, {"type": "Feature", "id": "872", "geometry": {"type": "Point", "coordinates": [11.605027, 44.8375]}, "properties": {"id": 1024.0, "nome": "sopramura Baluardo San Paolo alla Fortezza", "city": "Ferrara"}}, {"type": "Feature", "id": "883", "geometry": {"type": "Point", "coordinates": [11.616829, 44.832241]}, "properties": {"id": 1061.0, "nome": null, "city": "Ferrara"}}, {"type": "Feature", "id": "927", "geometry": {"type": "Point", "coordinates": [11.610693, 44.883969]}, "properties": {"id": 105.0, "nome": "via Venezia / via Orsatti", "city": "Ferrara"}}, {"type": "Feature", "id": "928", "geometry": {"type": "Point", "coordinates": [11.589122, 44.808469]}, "properties": {"id": 1211.0, "nome": "via Bologna lato ovest", "city": "Ferrara"}}, {"type": "Feature", "id": "942", "geometry": {"type": "Point", "coordinates": [11.650057, 44.863957]}, "properties": {"id": 1380.0, "nome": null, "city": "Ferrara"}}, {"type": "Feature", "id": "955", "geometry": {"type": "Point", "coordinates": [11.632988, 44.81594]}, "properties": {"id": 1150.0, "nome": "via Marvelli", "city": "Ferrara"}}, {"type": "Feature", "id": "957", "geometry": {"type": "Point", "coordinates": [11.602231, 44.862874]}, "properties": {"id": 1097.0, "nome": null, "city": "Ferrara"}}, {"type": "Feature", "id": "1032", "geometry": {"type": "Point", "coordinates": [11.632894, 44.824755]}, "properties": {"id": 1059.0, "nome": null, "city": "Ferrara"}}, {"type": "Feature", "id": "1035", "geometry": {"type": "Point", "coordinates": [11.640139, 44.84591]}, "properties": {"id": 870.0, "nome": null, "city": "Ferrara"}}, {"type": "Feature", "id": "1037", "geometry": {"type": "Point", "coordinates": [11.603669, 44.850469]}, "properties": {"id": 1391.0, "nome": null, "city": "Ferrara"}}, {"type": "Feature", "id": "1039", "geometry": {"type": "Point", "coordinates": [11.616208, 44.83184]}, "properties": {"id": 1062.0, "nome": null, "city": "Ferrara"}}, {"type": "Feature", "id": "1040", "geometry": {"type": "Point", "coordinates": [11.64011, 44.841381]}, "properties": {"id": 1408.0, "nome": null, "city": "Ferrara"}}, {"type": "Feature", "id": "1041", "geometry": {"type": "Point", "coordinates": [11.610345, 44.846443]}, "properties": {"id": 1405.0, "nome": null, "city": "Ferrara"}}, {"type": "Feature", "id": "1042", "geometry": {"type": "Point", "coordinates": [11.64137, 44.846409]}, "properties": {"id": 1335.0, "nome": null, "city": "Ferrara"}}, {"type": "Feature", "id": "1045", "geometry": {"type": "Point", "coordinates": [11.607106, 44.824798]}, "properties": {"id": 1065.0, "nome": null, "city": "Ferrara"}}, {"type": "Feature", "id": "1055", "geometry": {"type": "Point", "coordinates": [11.638193, 44.848486]}, "properties": {"id": 500.0, "nome": null, "city": "Ferrara"}}, {"type": "Feature", "id": "1063", "geometry": {"type": "Point", "coordinates": [11.634444, 44.840759]}, "properties": {"id": 98.0, "nome": "P.le San Giovanni dal sottomura a via Gramicia", "city": "Ferrara"}}, {"type": "Feature", "id": "1066", "geometry": {"type": "Point", "coordinates": [11.631662, 44.824395]}, "properties": {"id": 1407.0, "nome": null, "city": "Ferrara"}}, {"type": "Feature", "id": "6", "geometry": {"type": "Point", "coordinates": [11.614215, 44.885866]}, "properties": {"id": 72.0, "nome": "via Ricostruzione", "city": "Ferrara"}}, {"type": "Feature", "id": "448", "geometry": {"type": "Point", "coordinates": [11.603237, 44.849843]}, "properties": {"id": 628.0, "nome": "via Padova", "city": "Ferrara"}}, {"type": "Feature", "id": "450", "geometry": {"type": "Point", "coordinates": [11.63571, 44.841142]}, "properties": {"id": 1245.0, "nome": "Via Gramicia - Via Giovanni XXIII", "city": "Ferrara"}}]}